{
  "ChIJwTmpLgBv1moRJ2dCYKk8mAc": {
    "place_id": "ChIJwTmpLgBv1moRJ2dCYKk8mAc",
    "name": "Carins",
    "lat": -37.9248656,
    "lng": 144.9875581,
    "rating": null,
    "user_ratings_total": null,
    "details_fetched": true
  },
  "ChIJzTYadShv1moRQAExywLa0FE": {
    "place_id": "ChIJzTYadShv1moRQAExywLa0FE",
    "name": "bp",
    "lat": -37.92899999999999,
    "lng": 145.0039,
    "rating": 3,
    "user_ratings_total": 72,
    "details_fetched": true
  },
  "ChIJ66QEeh9v1moRzw3Ibn-h1OY": {
    "place_id": "ChIJ66QEeh9v1moRzw3Ibn-h1OY",
    "name": "Glasshouse Hampton",
    "lat": -37.9384812,
    "lng": 145.0022085,
    "rating": 4.2,
    "user_ratings_total": 145,
    "details_fetched": true
  },
  "ChIJGyrTMttt1moRJY3JgfDyHOo": {
    "place_id": "ChIJGyrTMttt1moRJY3JgfDyHOo",
    "name": "Ampol Foodary Sandringham",
    "lat": -37.9446886,
    "lng": 145.0015431,
    "rating": 3.8,
    "user_ratings_total": 167,
    "details_fetched": true
  },
  "ChIJd8XYi9lv1moRRf-twx6u_KQ": {
    "place_id": "ChIJd8XYi9lv1moRRf-twx6u_KQ",
    "name": "NAILOLOGY - Coffee & Nails (Hampton)",
    "lat": -37.9370075,
    "lng": 145.0007512,
    "rating": 4.8,
    "user_ratings_total": 162,
    "details_fetched": true
  },
  "ChIJS5motSFv1moRVc9wGFiu0SM": {
    "place_id": "ChIJS5motSFv1moRVc9wGFiu0SM",
    "name": "Cabin Coffee and Deli",
    "lat": -37.9365752,
    "lng": 145.0023514,
    "rating": 4.5,
    "user_ratings_total": 187,
    "details_fetched": true
  },
  "ChIJ37mtx6Nv1moRF1VzvFLDcg8": {
    "place_id": "ChIJ37mtx6Nv1moRF1VzvFLDcg8",
    "name": "Feast Cafe & Cakes - Hampton",
    "lat": -37.9376216,
    "lng": 145.0023329,
    "rating": 3.5,
    "user_ratings_total": 32,
    "details_fetched": true
  },
  "ChIJrxFAGx9v1moRDBSvxAGMZ44": {
    "place_id": "ChIJrxFAGx9v1moRDBSvxAGMZ44",
    "name": "Eclair",
    "lat": -37.9397172,
    "lng": 145.0019619,
    "rating": 4.7,
    "user_ratings_total": 176,
    "details_fetched": true
  },
  "ChIJo8T32yBv1moRBzSn6ALs-b8": {
    "place_id": "ChIJo8T32yBv1moRBzSn6ALs-b8",
    "name": "The Hamptons Bakery",
    "lat": -37.9346153,
    "lng": 145.0027111,
    "rating": 4.5,
    "user_ratings_total": 670,
    "details_fetched": true
  },
  "ChIJ0cKO0yBv1moRmA_R0Vqr_o8": {
    "place_id": "ChIJ0cKO0yBv1moRmA_R0Vqr_o8",
    "name": "Hampton Corner Cafe/Bakery",
    "lat": -37.933663,
    "lng": 145.003097,
    "rating": 4.6,
    "user_ratings_total": 124,
    "details_fetched": true
  },
  "ChIJRZPSvk9v1moR87c4wpBAFjg": {
    "place_id": "ChIJRZPSvk9v1moR87c4wpBAFjg",
    "name": "Lennox",
    "lat": -37.9322849,
    "lng": 145.0031184,
    "rating": 4.1,
    "user_ratings_total": 275,
    "details_fetched": true
  },
  "ChIJ9ah9Jilv1moRlyvDxgVRQeI": {
    "place_id": "ChIJ9ah9Jilv1moRlyvDxgVRQeI",
    "name": "Olie & Ari",
    "lat": -37.9256296,
    "lng": 145.0005664,
    "rating": 4.4,
    "user_ratings_total": 203,
    "details_fetched": true
  },
  "ChIJTwM8gFBv1moRYBLadG-7gUE": {
    "place_id": "ChIJTwM8gFBv1moRYBLadG-7gUE",
    "name": "Pippa's Cafe",
    "lat": -37.93106,
    "lng": 145.003476,
    "rating": 4.7,
    "user_ratings_total": 40,
    "details_fetched": true
  },
  "ChIJ-R7bMABv1moRxGaLynqVvcQ": {
    "place_id": "ChIJ-R7bMABv1moRxGaLynqVvcQ",
    "name": "Rebel Red Coffee",
    "lat": -37.94395799999999,
    "lng": 145.0061402,
    "rating": null,
    "user_ratings_total": null,
    "details_fetched": true
  },
  "ChIJ0dYwyedv1moRgPPZOFm5Kkk": {
    "place_id": "ChIJ0dYwyedv1moRgPPZOFm5Kkk",
    "name": "Dzert",
    "lat": -37.9488365,
    "lng": 145.00326,
    "rating": 4.9,
    "user_ratings_total": 167,
    "details_fetched": true
  },
  "ChIJBRv8WNpu1moR5lI3yY0HAsE": {
    "place_id": "ChIJBRv8WNpu1moR5lI3yY0HAsE",
    "name": "Cornerstone & Co.",
    "lat": -37.9340662,
    "lng": 145.0132999,
    "rating": 4.4,
    "user_ratings_total": 371,
    "details_fetched": true
  },
  "ChIJv10SlM1o1moRdVXCF4HK8NI": {
    "place_id": "ChIJv10SlM1o1moRdVXCF4HK8NI",
    "name": "Palace Church Street (FKA Dendy Brighton)",
    "lat": -37.9132187,
    "lng": 144.9926905,
    "rating": 4.2,
    "user_ratings_total": 656,
    "details_fetched": true
  },
  "ChIJ7ex0BEFv1moRMhNqz2GZMuE": {
    "place_id": "ChIJ7ex0BEFv1moRMhNqz2GZMuE",
    "name": "Pokiesww Casino",
    "lat": -37.9234749,
    "lng": 145.0057654,
    "rating": null,
    "user_ratings_total": null,
    "details_fetched": true
  },
  "ChIJ8XUrcOtv1moRQOIyPpN92SU": {
    "place_id": "ChIJ8XUrcOtv1moRQOIyPpN92SU",
    "name": "Cannabis Granary1",
    "lat": -37.9447136,
    "lng": 145.0120671,
    "rating": null,
    "user_ratings_total": null,
    "details_fetched": true
  },
  "ChIJrwY_lUtp1moRs4rABiWzLQA": {
    "place_id": "ChIJrwY_lUtp1moRs4rABiWzLQA",
    "name": "Rustica Brighton",
    "lat": -37.9194539,
    "lng": 145.0061449,
    "rating": 4.1,
    "user_ratings_total": 148,
    "details_fetched": true
  },
  "ChIJFSskiOlu1moR_vP6JDgPBA8": {
    "place_id": "ChIJFSskiOlu1moR_vP6JDgPBA8",
    "name": "Coffee Stop At Raw",
    "lat": -37.9462198,
    "lng": 145.0218615,
    "rating": 4.7,
    "user_ratings_total": 19,
    "details_fetched": true
  },
  "ChIJBVGNmaxv1moRzFVmErzqR30": {
    "place_id": "ChIJBVGNmaxv1moRzFVmErzqR30",
    "name": "mehla family Pty ltd",
    "lat": -37.9533716,
    "lng": 145.0135083,
    "rating": null,
    "user_ratings_total": null,
    "details_fetched": true
  },
  "ChIJ_erBfEZp1moRpYXr0amTolE": {
    "place_id": "ChIJ_erBfEZp1moRpYXr0amTolE",
    "name": "Cafe Di Centro",
    "lat": -37.91793449999999,
    "lng": 145.0321843,
    "rating": 4.1,
    "user_ratings_total": 11,
    "details_fetched": true
  },
  "ChIJff8IzbNu1moR0qIevTgPoVU": {
    "place_id": "ChIJff8IzbNu1moR0qIevTgPoVU",
    "name": "Cafe Sana",
    "lat": -37.93435150000001,
    "lng": 145.0351322,
    "rating": 4.7,
    "user_ratings_total": 174,
    "details_fetched": true
  },
  "ChIJoQjwSQBv1moR4-t3AbtAiB0": {
    "place_id": "ChIJoQjwSQBv1moR4-t3AbtAiB0",
    "name": "Sparkling Café",
    "lat": -37.93275369999999,
    "lng": 145.0349332,
    "rating": null,
    "user_ratings_total": null,
    "details_fetched": true
  },
  "ChIJL2O_K7Ju1moRni9ZknhEbN8": {
    "place_id": "ChIJL2O_K7Ju1moRni9ZknhEbN8",
    "name": "Versano Coffee",
    "lat": -37.9352009,
    "lng": 145.0356208,
    "rating": null,
    "user_ratings_total": null,
    "details_fetched": true
  },
  "ChIJE-wNO7Ju1moRBOtNEQ8IbwM": {
    "place_id": "ChIJE-wNO7Ju1moRBOtNEQ8IbwM",
    "name": "Moor Street Food Cafe",
    "lat": -37.9348362,
    "lng": 145.0364875,
    "rating": 4.5,
    "user_ratings_total": 52,
    "details_fetched": true
  },
  "ChIJw_SXPbRv1moRIB1aps0jVqc": {
    "place_id": "ChIJw_SXPbRv1moRIB1aps0jVqc",
    "name": "Robo Diner",
    "lat": -37.9345754,
    "lng": 145.0373088,
    "rating": 4.5,
    "user_ratings_total": 142,
    "details_fetched": true
  },
  "ChIJbRa297Zv1moRofW_wpA1biA": {
    "place_id": "ChIJbRa297Zv1moRofW_wpA1biA",
    "name": "Tuckshop cafe & bagels",
    "lat": -37.9354804,
    "lng": 145.0378022,
    "rating": 4.8,
    "user_ratings_total": 171,
    "details_fetched": true
  },
  "ChIJ251ExaNu1moR-SvdA-L8zQI": {
    "place_id": "ChIJ251ExaNu1moR-SvdA-L8zQI",
    "name": "Monkey Can Fly Café",
    "lat": -37.948776,
    "lng": 145.043084,
    "rating": 4.4,
    "user_ratings_total": 240,
    "details_fetched": true
  },
  "ChIJT3B5KVZp1moRdcDl29rxaLQ": {
    "place_id": "ChIJT3B5KVZp1moRdcDl29rxaLQ",
    "name": "Tucker Road Coffee Merchants",
    "lat": -37.9282172,
    "lng": 145.0491218,
    "rating": 4.3,
    "user_ratings_total": 61,
    "details_fetched": true
  },
  "ChIJ49av-KJu1moRstyBe66ohLk": {
    "place_id": "ChIJ49av-KJu1moRstyBe66ohLk",
    "name": "Ferguson Plarre's Bakehouse - Highett",
    "lat": -37.9490707,
    "lng": 145.0411875,
    "rating": 4.3,
    "user_ratings_total": 82,
    "details_fetched": true
  },
  "ChIJ_aSgTBts1moRyuVtpJJ-S4Q": {
    "place_id": "ChIJ_aSgTBts1moRyuVtpJJ-S4Q",
    "name": "The Tradesman Cafe",
    "lat": -37.9470678,
    "lng": 145.0558349,
    "rating": 4.3,
    "user_ratings_total": 529,
    "details_fetched": true
  },
  "ChIJSVPOzB1v1moRJpe0RDVx0p4": {
    "place_id": "ChIJSVPOzB1v1moRJpe0RDVx0p4",
    "name": "Linton Street Cafe",
    "lat": -37.93649749999999,
    "lng": 145.0428439,
    "rating": 4.8,
    "user_ratings_total": 12,
    "details_fetched": true
  },
  "ChIJRSBtVVVp1moRLUwTEPQhClE": {
    "place_id": "ChIJRSBtVVVp1moRLUwTEPQhClE",
    "name": "Custodian Kitchen",
    "lat": -37.93509340000001,
    "lng": 145.0492563,
    "rating": 4.7,
    "user_ratings_total": 328,
    "details_fetched": true
  },
  "ChIJRdFwRQBv1moR__dOfb68-uw": {
    "place_id": "ChIJRdFwRQBv1moR__dOfb68-uw",
    "name": "Red Star Café and Wine Bar",
    "lat": -37.9483842,
    "lng": 145.039743,
    "rating": 4.8,
    "user_ratings_total": 22,
    "details_fetched": true
  },
  "ChIJD_M9qEFt1moRFJBOzQ0sUQ0": {
    "place_id": "ChIJD_M9qEFt1moRFJBOzQ0sUQ0",
    "name": "BD Cafe Moorabbin",
    "lat": -37.93849410000001,
    "lng": 145.0502315,
    "rating": 5,
    "user_ratings_total": 2,
    "details_fetched": true
  },
  "ChIJR1vhDABs1moRHw_LSRm88n0": {
    "place_id": "ChIJR1vhDABs1moRHw_LSRm88n0",
    "name": "Jamaica Blue Holmesglen Private Hospital",
    "lat": -37.9362579,
    "lng": 145.0512323,
    "rating": 4,
    "user_ratings_total": 16,
    "details_fetched": true
  },
  "ChIJvw_MrIJv1moR3loGsj2tZRI": {
    "place_id": "ChIJvw_MrIJv1moR3loGsj2tZRI",
    "name": "Urban Whisk Cookie Cafe",
    "lat": -37.9488643,
    "lng": 145.044147,
    "rating": 5,
    "user_ratings_total": 5,
    "details_fetched": true
  },
  "ChIJ_6yu5z9p1moRhbu-UVovefs": {
    "place_id": "ChIJ_6yu5z9p1moRhbu-UVovefs",
    "name": "The Acai Affect",
    "lat": -37.9178995,
    "lng": 145.0356106,
    "rating": 4.5,
    "user_ratings_total": 107,
    "details_fetched": true
  },
  "ChIJaVR8c3Vp1moRVcoHb6EUAig": {
    "place_id": "ChIJaVR8c3Vp1moRVcoHb6EUAig",
    "name": "Boho Lounge & Boutique",
    "lat": -37.91833469999999,
    "lng": 145.0415213,
    "rating": 4.9,
    "user_ratings_total": 129,
    "details_fetched": true
  },
  "ChIJVe3Lf5Fu1moR5zVN6CPV2xA": {
    "place_id": "ChIJVe3Lf5Fu1moR5zVN6CPV2xA",
    "name": "Kay and Anne’s Bay Cafe",
    "lat": -37.9549543,
    "lng": 145.0327643,
    "rating": 4.6,
    "user_ratings_total": 10,
    "details_fetched": true
  },
  "ChIJgU3hvOxv1moRUrGGXTmMiBo": {
    "place_id": "ChIJgU3hvOxv1moRUrGGXTmMiBo",
    "name": "Full strength reformer cafe",
    "lat": -37.95444799999999,
    "lng": 145.0240598,
    "rating": 4.7,
    "user_ratings_total": 22,
    "details_fetched": true
  },
  "ChIJb-x9b-1u1moRJBcbu_R05O0": {
    "place_id": "ChIJb-x9b-1u1moRJBcbu_R05O0",
    "name": "Full Turn Kitchen Bar",
    "lat": -37.9549655,
    "lng": 145.0256543,
    "rating": 4.4,
    "user_ratings_total": 225,
    "details_fetched": true
  },
  "ChIJRY_mQHtv1moRBpgvoVdr24Y": {
    "place_id": "ChIJRY_mQHtv1moRBpgvoVdr24Y",
    "name": "Single Shot Cafe",
    "lat": -37.95363709999999,
    "lng": 145.0204772,
    "rating": 4.6,
    "user_ratings_total": 73,
    "details_fetched": true
  },
  "ChIJu9EVoWpo1moRhJ1C6CmuJRY": {
    "place_id": "ChIJu9EVoWpo1moRhJ1C6CmuJRY",
    "name": "Royal Brighton Yacht Club",
    "lat": -37.9091974,
    "lng": 144.9862811,
    "rating": 4.4,
    "user_ratings_total": 1052,
    "details_fetched": true
  },
  "ChIJzx4A-sxo1moRc1FklzjE52k": {
    "place_id": "ChIJzx4A-sxo1moRc1FklzjE52k",
    "name": "Thirsty Camel",
    "lat": -37.9135426,
    "lng": 144.9913973,
    "rating": 4.5,
    "user_ratings_total": 12,
    "details_fetched": true
  },
  "ChIJzyQaCPFp1moR_enSxAEPnww": {
    "place_id": "ChIJzyQaCPFp1moR_enSxAEPnww",
    "name": "Cavalli Italiano",
    "lat": -37.911644,
    "lng": 144.9997777,
    "rating": 4.3,
    "user_ratings_total": 224,
    "details_fetched": true
  },
  "ChIJ3SyESwBp1moRCR8c1wpJX7E": {
    "place_id": "ChIJ3SyESwBp1moRCR8c1wpJX7E",
    "name": "The Ground’s Cafe",
    "lat": -37.9119424,
    "lng": 145.0018518,
    "rating": 5,
    "user_ratings_total": 1,
    "details_fetched": true
  },
  "ChIJg2GwDwBp1moR-bBG1Oe3VWI": {
    "place_id": "ChIJg2GwDwBp1moR-bBG1Oe3VWI",
    "name": "Aromi Caffè",
    "lat": -37.9046987,
    "lng": 144.9932466,
    "rating": 4.9,
    "user_ratings_total": 7,
    "details_fetched": true
  },
  "ChIJHZpvsB9p1moRx610KUfAp9M": {
    "place_id": "ChIJHZpvsB9p1moRx610KUfAp9M",
    "name": "bp",
    "lat": -37.9004497,
    "lng": 145.0071611,
    "rating": 2.5,
    "user_ratings_total": 125,
    "details_fetched": true
  },
  "ChIJB7cCRGhp1moR8waP-MxzEyc": {
    "place_id": "ChIJB7cCRGhp1moR8waP-MxzEyc",
    "name": "Mr Burch",
    "lat": -37.9107246,
    "lng": 145.0365698,
    "rating": 4.5,
    "user_ratings_total": 439,
    "details_fetched": true
  },
  "ChIJbegOVGZp1moRlUiLHLZ6yg8": {
    "place_id": "ChIJbegOVGZp1moRlUiLHLZ6yg8",
    "name": "Angelar's Cafe",
    "lat": -37.9112506,
    "lng": 145.0407106,
    "rating": 4.7,
    "user_ratings_total": 27,
    "details_fetched": true
  },
  "ChIJ2WdRvHxp1moRndrR4T1E1dU": {
    "place_id": "ChIJ2WdRvHxp1moRndrR4T1E1dU",
    "name": "McDonald's Ormond",
    "lat": -37.9047767,
    "lng": 145.0446824,
    "rating": 3.3,
    "user_ratings_total": 2297,
    "details_fetched": true
  },
  "ChIJYwjaRntp1moR96EYJU4qVTg": {
    "place_id": "ChIJYwjaRntp1moR96EYJU4qVTg",
    "name": "Steak Bank Charcoal Grill",
    "lat": -37.904004,
    "lng": 145.042712,
    "rating": 4.4,
    "user_ratings_total": 254,
    "details_fetched": true
  },
  "ChIJbyWfqeFr1moRCYCeGMudfrY": {
    "place_id": "ChIJbyWfqeFr1moRCYCeGMudfrY",
    "name": "United Petroleum Bentleigh East (Pie Face)",
    "lat": -37.9196822,
    "lng": 145.052223,
    "rating": 2.7,
    "user_ratings_total": 60,
    "details_fetched": true
  },
  "ChIJq5otYz1r1moR-F9MrZEHIhs": {
    "place_id": "ChIJq5otYz1r1moR-F9MrZEHIhs",
    "name": "Night Grind Coffee",
    "lat": -37.92587169999999,
    "lng": 145.0555056,
    "rating": null,
    "user_ratings_total": null,
    "details_fetched": true
  },
  "ChIJXackVKBp1moRDnTGIsvNsW0": {
    "place_id": "ChIJXackVKBp1moRDnTGIsvNsW0",
    "name": "Berriko’s - Ormond",
    "lat": -37.90392840000001,
    "lng": 145.041812,
    "rating": 4,
    "user_ratings_total": 103,
    "details_fetched": true
  },
  "ChIJ_eLYqc9r1moRBLEhSoJuoFk": {
    "place_id": "ChIJ_eLYqc9r1moRBLEhSoJuoFk",
    "name": "Virginia Park Cafe.",
    "lat": -37.9099081,
    "lng": 145.0628826,
    "rating": 4.5,
    "user_ratings_total": 70,
    "details_fetched": true
  },
  "ChIJV4xzcfdr1moRVLGNAL797rs": {
    "place_id": "ChIJV4xzcfdr1moRVLGNAL797rs",
    "name": "Ampol Foodary Moorabbin",
    "lat": -37.9367654,
    "lng": 145.0617256,
    "rating": 3.5,
    "user_ratings_total": 105,
    "details_fetched": true
  },
  "ChIJJVXAGOVr1moRXl9YjtKQC8E": {
    "place_id": "ChIJJVXAGOVr1moRXl9YjtKQC8E",
    "name": "Korner & Co.",
    "lat": -37.9277996,
    "lng": 145.057972,
    "rating": 4.5,
    "user_ratings_total": 360,
    "details_fetched": true
  },
  "ChIJxwEFBABr1moROwnjiaKr-Rk": {
    "place_id": "ChIJxwEFBABr1moROwnjiaKr-Rk",
    "name": "Eten Cafe",
    "lat": -37.9158709,
    "lng": 145.0608635,
    "rating": 2.5,
    "user_ratings_total": 11,
    "details_fetched": true
  },
  "ChIJKdnRrblp1moRnKJamw27Kfc": {
    "place_id": "ChIJKdnRrblp1moRnKJamw27Kfc",
    "name": "Che Buono",
    "lat": -37.8968168,
    "lng": 145.0046415,
    "rating": 4.9,
    "user_ratings_total": 25,
    "details_fetched": true
  },
  "ChIJv8kHKhPFpaUR2IRnhSTVSVg": {
    "place_id": "ChIJv8kHKhPFpaUR2IRnhSTVSVg",
    "name": "Two Hens",
    "lat": -37.8984371,
    "lng": 145.0128048,
    "rating": 4.9,
    "user_ratings_total": 136,
    "details_fetched": true
  },
  "ChIJI2uZVVxp1moRDs98CckCxuw": {
    "place_id": "ChIJI2uZVVxp1moRDs98CckCxuw",
    "name": "Little Company Cafe Kooyong",
    "lat": -37.8970523,
    "lng": 145.016467,
    "rating": 4,
    "user_ratings_total": 4,
    "details_fetched": true
  },
  "ChIJc7xm_bRr1moRwsFBLIRwTdw": {
    "place_id": "ChIJc7xm_bRr1moRwsFBLIRwTdw",
    "name": "McDonald's Oakleigh",
    "lat": -37.9079984,
    "lng": 145.0752931,
    "rating": 3.6,
    "user_ratings_total": 1217,
    "details_fetched": true
  },
  "ChIJOaEOrLxr1moRV4HmqL8PTC8": {
    "place_id": "ChIJOaEOrLxr1moRV4HmqL8PTC8",
    "name": "McDonald's South Oakleigh",
    "lat": -37.92326449999999,
    "lng": 145.0822155,
    "rating": 3.4,
    "user_ratings_total": 1985,
    "details_fetched": true
  },
  "ChIJfQYZ2Wxr1moRuCxOSFi2Du8": {
    "place_id": "ChIJfQYZ2Wxr1moRuCxOSFi2Du8",
    "name": "ORIANNA SUSHI CAFE",
    "lat": -37.8955708,
    "lng": 145.0764119,
    "rating": 4.8,
    "user_ratings_total": 140,
    "details_fetched": true
  },
  "ChIJzQDP_X1r1moR6OUWpdnUhRI": {
    "place_id": "ChIJzQDP_X1r1moR6OUWpdnUhRI",
    "name": "gus's",
    "lat": -37.9265114,
    "lng": 145.0744015,
    "rating": 5,
    "user_ratings_total": 5,
    "details_fetched": true
  },
  "ChIJOQEPUq9r1moRccc3eHWR5AE": {
    "place_id": "ChIJOQEPUq9r1moRccc3eHWR5AE",
    "name": "Infinity Carwash and Cafe Murrumbeena",
    "lat": -37.88877449999999,
    "lng": 145.0670976,
    "rating": 4.3,
    "user_ratings_total": 393,
    "details_fetched": true
  },
  "ChIJR99VVFhq1moRa7hkyW4krys": {
    "place_id": "ChIJR99VVFhq1moRa7hkyW4krys",
    "name": "Cafe 56",
    "lat": -37.90039569999999,
    "lng": 145.0908289,
    "rating": 4.5,
    "user_ratings_total": 32,
    "details_fetched": true
  },
  "ChIJheN9jmhq1moRlDo-Jvjh1jM": {
    "place_id": "ChIJheN9jmhq1moRlDo-Jvjh1jM",
    "name": "Starbucks Chadstone",
    "lat": -37.8869687,
    "lng": 145.0839076,
    "rating": 3.8,
    "user_ratings_total": 1397,
    "details_fetched": true
  },
  "ChIJD775ymVq1moRm9lRM5GP-AM": {
    "place_id": "ChIJD775ymVq1moRm9lRM5GP-AM",
    "name": "Krispy Kreme",
    "lat": -37.88582299999999,
    "lng": 145.0835623,
    "rating": 3.8,
    "user_ratings_total": 130,
    "details_fetched": true
  },
  "ChIJTe5iO2Zq1moR4d-AtKR2qkQ": {
    "place_id": "ChIJTe5iO2Zq1moR4d-AtKR2qkQ",
    "name": "The Cupcake Queens",
    "lat": -37.8858036,
    "lng": 145.0844518,
    "rating": 4.7,
    "user_ratings_total": 178,
    "details_fetched": true
  },
  "ChIJPylMBWZq1moRmdfGh8b0p6M": {
    "place_id": "ChIJPylMBWZq1moRmdfGh8b0p6M",
    "name": "Koko Black Chadstone LG",
    "lat": -37.8872227,
    "lng": 145.0811818,
    "rating": 4.2,
    "user_ratings_total": 440,
    "details_fetched": true
  },
  "ChIJOZADFVhq1moR6qCaMjy4pRc": {
    "place_id": "ChIJOZADFVhq1moR6qCaMjy4pRc",
    "name": "Challenge Cafe Oakleigh",
    "lat": -37.902012,
    "lng": 145.092224,
    "rating": 4.6,
    "user_ratings_total": 9,
    "details_fetched": true
  },
  "ChIJj3FJme9r1moRc1Sq9FdKRAQ": {
    "place_id": "ChIJj3FJme9r1moRc1Sq9FdKRAQ",
    "name": "Honeyccino Kids Cafe",
    "lat": -37.899689,
    "lng": 145.093238,
    "rating": 4.4,
    "user_ratings_total": 243,
    "details_fetched": true
  },
  "ChIJ0X7iM_Br1moRWsGVHpniyzY": {
    "place_id": "ChIJ0X7iM_Br1moRWsGVHpniyzY",
    "name": "360 Three Sixty Shisha Lounge Cafe",
    "lat": -37.8934715,
    "lng": 145.0877202,
    "rating": 4.7,
    "user_ratings_total": 173,
    "details_fetched": true
  },
  "ChIJ4bA5YQBr1moRz-U-W7LE-Kc": {
    "place_id": "ChIJ4bA5YQBr1moRz-U-W7LE-Kc",
    "name": "Little Hideout",
    "lat": -37.911016,
    "lng": 145.1023235,
    "rating": 5,
    "user_ratings_total": 15,
    "details_fetched": true
  },
  "ChIJkc6HQOFr1moR2ns6rMtFzgA": {
    "place_id": "ChIJkc6HQOFr1moR2ns6rMtFzgA",
    "name": "Coffeetime Plantation",
    "lat": -37.8935731,
    "lng": 145.089676,
    "rating": 3.2,
    "user_ratings_total": 5,
    "details_fetched": true
  },
  "ChIJj2sgKftq1moRvTcTSsj6kmA": {
    "place_id": "ChIJj2sgKftq1moRvTcTSsj6kmA",
    "name": "Amanti Coffee",
    "lat": -37.9095892,
    "lng": 145.1039675,
    "rating": null,
    "user_ratings_total": null,
    "details_fetched": true
  },
  "ChIJ9dYvTTlr1moRRLhZWnyepr0": {
    "place_id": "ChIJ9dYvTTlr1moRRLhZWnyepr0",
    "name": "Peddler Kitchen",
    "lat": -37.908784,
    "lng": 145.104274,
    "rating": 4.5,
    "user_ratings_total": 149,
    "details_fetched": true
  },
  "ChIJRWXQcBhr1moRmjcBN9dvXtg": {
    "place_id": "ChIJRWXQcBhr1moRmjcBN9dvXtg",
    "name": "little victorian children",
    "lat": -37.914059,
    "lng": 145.1039849,
    "rating": 3.7,
    "user_ratings_total": 7,
    "details_fetched": true
  },
  "ChIJZ5Co3y5r1moRnlX0CpEiw0w": {
    "place_id": "ChIJZ5Co3y5r1moRnlX0CpEiw0w",
    "name": "The Healthlink Crew Oakleigh",
    "lat": -37.8938892,
    "lng": 145.0965084,
    "rating": 3.7,
    "user_ratings_total": 12,
    "details_fetched": true
  },
  "ChIJQwsqvehr1moR_vu_km03aYY": {
    "place_id": "ChIJQwsqvehr1moR_vu_km03aYY",
    "name": "Carrera Coffee and Eats",
    "lat": -37.91076329999999,
    "lng": 145.1068511,
    "rating": 5,
    "user_ratings_total": 12,
    "details_fetched": true
  },
  "ChIJ27FaweJq1moRCCX_y7phoGw": {
    "place_id": "ChIJ27FaweJq1moRCCX_y7phoGw",
    "name": "Sweet Bites Lunch Bar",
    "lat": -37.9155359,
    "lng": 145.1056245,
    "rating": 4.7,
    "user_ratings_total": 27,
    "details_fetched": true
  },
  "ChIJSz3Xibtr1moRGlo0Znw5Jko": {
    "place_id": "ChIJSz3Xibtr1moRGlo0Znw5Jko",
    "name": "La Roca Boulders",
    "lat": -37.916183,
    "lng": 145.106006,
    "rating": 4.9,
    "user_ratings_total": 375,
    "details_fetched": true
  },
  "ChIJB8xOo6Fp1moRT4eXYkSS-fU": {
    "place_id": "ChIJB8xOo6Fp1moRT4eXYkSS-fU",
    "name": "OTR St Kilda",
    "lat": -37.8758668,
    "lng": 144.9766197,
    "rating": 3.1,
    "user_ratings_total": 59,
    "details_fetched": true
  },
  "ChIJQZm7Ju9o1moRzvX32UOvZlY": {
    "place_id": "ChIJQZm7Ju9o1moRzvX32UOvZlY",
    "name": "Elsternwick Park Tennis Centre",
    "lat": -37.88380420000001,
    "lng": 144.992616,
    "rating": 4.6,
    "user_ratings_total": 74,
    "details_fetched": true
  },
  "ChIJvaf6dPlo1moR86tqTSgcLrI": {
    "place_id": "ChIJvaf6dPlo1moR86tqTSgcLrI",
    "name": "Ampol Foodary Elsternwick",
    "lat": -37.8840085,
    "lng": 144.9976997,
    "rating": 3.6,
    "user_ratings_total": 120,
    "details_fetched": true
  },
  "ChIJZw1fv8dp1moRViSQnzE-E2A": {
    "place_id": "ChIJZw1fv8dp1moRViSQnzE-E2A",
    "name": "Kremma",
    "lat": -37.8806525,
    "lng": 144.9914009,
    "rating": 5,
    "user_ratings_total": 51,
    "details_fetched": true
  },
  "ChIJGf-pdABp1moRXf3HCKZh1mY": {
    "place_id": "ChIJGf-pdABp1moRXf3HCKZh1mY",
    "name": "Bread N Brews",
    "lat": -37.8844613,
    "lng": 145.0032798,
    "rating": 5,
    "user_ratings_total": 28,
    "details_fetched": true
  },
  "ChIJb3xp_K5p1moRkThK-Ldl9mk": {
    "place_id": "ChIJb3xp_K5p1moRkThK-Ldl9mk",
    "name": "Divine Deli",
    "lat": -37.878868,
    "lng": 145.0132996,
    "rating": 5,
    "user_ratings_total": 66,
    "details_fetched": true
  },
  "ChIJF6cXwgJp1moRzaKZ2Zm0D5A": {
    "place_id": "ChIJF6cXwgJp1moRzaKZ2Zm0D5A",
    "name": "Vegi & Coffee Lover",
    "lat": -37.8859526,
    "lng": 145.0219932,
    "rating": 4.8,
    "user_ratings_total": 201,
    "details_fetched": true
  },
  "ChIJhW2qwTtp1moRo7Do5pMrkS0": {
    "place_id": "ChIJhW2qwTtp1moRo7Do5pMrkS0",
    "name": "Coffeefield Cafe",
    "lat": -37.8826291,
    "lng": 145.0161829,
    "rating": 3.2,
    "user_ratings_total": 9,
    "details_fetched": true
  },
  "ChIJN_gKe_Np1moRCoransx3P00": {
    "place_id": "ChIJN_gKe_Np1moRCoransx3P00",
    "name": "Rasa Rasa",
    "lat": -37.8753089,
    "lng": 145.0435028,
    "rating": 4.5,
    "user_ratings_total": 119,
    "details_fetched": true
  },
  "ChIJoW-VhIhp1moRmYLbFGrnwS8": {
    "place_id": "ChIJoW-VhIhp1moRmYLbFGrnwS8",
    "name": "Tony's Cafe",
    "lat": -37.8869542,
    "lng": 145.0460249,
    "rating": 5,
    "user_ratings_total": 4,
    "details_fetched": true
  },
  "ChIJQZ6d9iJq1moR_KOEzs-RZp8": {
    "place_id": "ChIJQZ6d9iJq1moR_KOEzs-RZp8",
    "name": "Sparklers Hand Car Wash and Cafe",
    "lat": -37.8835419,
    "lng": 145.0578332,
    "rating": 4.4,
    "user_ratings_total": 506,
    "details_fetched": true
  },
  "ChIJ92NJJx5q1moREb42pdsAiXY": {
    "place_id": "ChIJ92NJJx5q1moREb42pdsAiXY",
    "name": "Gujju's Cafe & Chat House",
    "lat": -37.875948,
    "lng": 145.049492,
    "rating": 3.7,
    "user_ratings_total": 824,
    "details_fetched": true
  },
  "ChIJL3oWv5pr1moRvct2XX2pNnI": {
    "place_id": "ChIJL3oWv5pr1moRvct2XX2pNnI",
    "name": "Get Real Coffee & Juice Bar",
    "lat": -37.88468880000001,
    "lng": 145.0585625,
    "rating": 4,
    "user_ratings_total": 24,
    "details_fetched": true
  },
  "ChIJe8VXp5Zp1moRxnZ0qhMmGAU": {
    "place_id": "ChIJe8VXp5Zp1moRxnZ0qhMmGAU",
    "name": "Sammy's",
    "lat": -37.8777863,
    "lng": 145.0458062,
    "rating": 4.1,
    "user_ratings_total": 30,
    "details_fetched": true
  },
  "ChIJNTYfdGlq1moRxmc6CHmu6uU": {
    "place_id": "ChIJNTYfdGlq1moRxmc6CHmu6uU",
    "name": "McDonald's Chadstone",
    "lat": -37.8862106,
    "lng": 145.0779249,
    "rating": 3.6,
    "user_ratings_total": 1849,
    "details_fetched": true
  },
  "ChIJz_5B86xr1moRzDCatAxVC1I": {
    "place_id": "ChIJz_5B86xr1moRzDCatAxVC1I",
    "name": "Robotica Coffee Chadstone",
    "lat": -37.8865472,
    "lng": 145.0831039,
    "rating": 4.6,
    "user_ratings_total": 18,
    "details_fetched": true
  },
  "ChIJrQHvkX9q1moR6SCY4Epd5rc": {
    "place_id": "ChIJrQHvkX9q1moR6SCY4Epd5rc",
    "name": "Cafe La Kiss",
    "lat": -37.8750124,
    "lng": 145.0904399,
    "rating": 3.8,
    "user_ratings_total": 18,
    "details_fetched": true
  },
  "ChIJAQAAAIRq1moRcmMKFoKtTEI": {
    "place_id": "ChIJAQAAAIRq1moRcmMKFoKtTEI",
    "name": "McDonald's Holmesglen",
    "lat": -37.8758418,
    "lng": 145.0909968,
    "rating": 3.6,
    "user_ratings_total": 1988,
    "details_fetched": true
  },
  "ChIJnVbv-7tr1moRQ11ek1qvBlc": {
    "place_id": "ChIJnVbv-7tr1moRQ11ek1qvBlc",
    "name": "Koko Black - Chadstone Market Pavilion",
    "lat": -37.8859034,
    "lng": 145.085521,
    "rating": 4,
    "user_ratings_total": 1,
    "details_fetched": true
  },
  "ChIJyQU6i3Bj1moRcJqd5NYqij0": {
    "place_id": "ChIJyQU6i3Bj1moRcJqd5NYqij0",
    "name": "Baci's Coffee - Piccolo",
    "lat": -37.8736053,
    "lng": 144.8167633,
    "rating": 5,
    "user_ratings_total": 30,
    "details_fetched": true
  },
  "ChIJtSv6OxZj1moR_I-63LPnocE": {
    "place_id": "ChIJtSv6OxZj1moR_I-63LPnocE",
    "name": "Mascalzone Altona",
    "lat": -37.86975749999999,
    "lng": 144.8303381,
    "rating": 4.6,
    "user_ratings_total": 416,
    "details_fetched": true
  },
  "ChIJ-4j86S1h1moR6s4cjxlj4HA": {
    "place_id": "ChIJ-4j86S1h1moR6s4cjxlj4HA",
    "name": "Baci's Coffee",
    "lat": -37.8651345,
    "lng": 144.8472495,
    "rating": 5,
    "user_ratings_total": 53,
    "details_fetched": true
  },
  "ChIJA-4Pj79m1moRYVDctXQi6ZY": {
    "place_id": "ChIJA-4Pj79m1moRYVDctXQi6ZY",
    "name": "Greenbag Espresso Bar",
    "lat": -37.8638755,
    "lng": 144.8929974,
    "rating": 3.4,
    "user_ratings_total": 14,
    "details_fetched": true
  },
  "ChIJQZVKjdxn1moR9eHKJnmbvg8": {
    "place_id": "ChIJQZVKjdxn1moR9eHKJnmbvg8",
    "name": "Bean Stalker",
    "lat": -37.86325339999999,
    "lng": 144.9022525,
    "rating": 4.7,
    "user_ratings_total": 33,
    "details_fetched": true
  },
  "ChIJbSB4HABn1moRymAqcJ5wSXw": {
    "place_id": "ChIJbSB4HABn1moRymAqcJ5wSXw",
    "name": "Buoy & Bean",
    "lat": -37.86516369999999,
    "lng": 144.909934,
    "rating": 4.4,
    "user_ratings_total": 14,
    "details_fetched": true
  },
  "ChIJv2TsfLhn1moRg4hkhqXDeQU": {
    "place_id": "ChIJv2TsfLhn1moRg4hkhqXDeQU",
    "name": "Nonno's Pizzeria",
    "lat": -37.8621214,
    "lng": 144.9024687,
    "rating": 4.5,
    "user_ratings_total": 332,
    "details_fetched": true
  },
  "ChIJOZsCpG9o1moRTH8x1b-3RVM": {
    "place_id": "ChIJOZsCpG9o1moRTH8x1b-3RVM",
    "name": "The Hub Cafe",
    "lat": -37.8617765,
    "lng": 144.9747109,
    "rating": 3.7,
    "user_ratings_total": 91,
    "details_fetched": true
  },
  "ChIJVwrzhmZo1moRurJQJhBUw4w": {
    "place_id": "ChIJVwrzhmZo1moRurJQJhBUw4w",
    "name": "McDonald's St Kilda",
    "lat": -37.8667912,
    "lng": 144.9776365,
    "rating": 3.3,
    "user_ratings_total": 3523,
    "details_fetched": true
  },
  "ChIJM10K8G9p1moRWaulOSX9r5E": {
    "place_id": "ChIJM10K8G9p1moRWaulOSX9r5E",
    "name": "Lady Of St Kilda",
    "lat": -37.8698992,
    "lng": 144.9808386,
    "rating": 4.8,
    "user_ratings_total": 2085,
    "details_fetched": true
  },
  "ChIJP6SjrGdo1moR9eUJMBROVHA": {
    "place_id": "ChIJP6SjrGdo1moR9eUJMBROVHA",
    "name": "Barzar Lounge Saint Kilda",
    "lat": -37.8672222,
    "lng": 144.9805556,
    "rating": 3.8,
    "user_ratings_total": 306,
    "details_fetched": true
  },
  "ChIJHdiUo9Np1moRJs-e_3BeTKY": {
    "place_id": "ChIJHdiUo9Np1moRJs-e_3BeTKY",
    "name": "NOOK179",
    "lat": -37.8680524,
    "lng": 144.98084,
    "rating": null,
    "user_ratings_total": null,
    "details_fetched": true
  },
  "ChIJc1qfCG1p1moRIiEC0XYKeu8": {
    "place_id": "ChIJc1qfCG1p1moRIiEC0XYKeu8",
    "name": "Theatre Works' Blackbox Café",
    "lat": -37.8639597,
    "lng": 144.9758234,
    "rating": 4.8,
    "user_ratings_total": 36,
    "details_fetched": true
  },
  "ChIJJ-2j_GVp1moR7M3Vq8EA9Qs": {
    "place_id": "ChIJJ-2j_GVp1moR7M3Vq8EA9Qs",
    "name": "Sam's Cafe Melbourne",
    "lat": -37.8669576,
    "lng": 144.9813876,
    "rating": 4.8,
    "user_ratings_total": 222,
    "details_fetched": true
  },
  "ChIJda-mtQlp1moRqNImJH1Ruis": {
    "place_id": "ChIJda-mtQlp1moRqNImJH1Ruis",
    "name": "Sip by Soak St Kilda",
    "lat": -37.860968,
    "lng": 144.9760552,
    "rating": null,
    "user_ratings_total": null,
    "details_fetched": true
  },
  "ChIJ5ekFum5o1moRq7nK6so70Cs": {
    "place_id": "ChIJ5ekFum5o1moRq7nK6so70Cs",
    "name": "JBS Hospitality Group",
    "lat": -37.8724075,
    "lng": 144.9903572,
    "rating": 2,
    "user_ratings_total": 4,
    "details_fetched": true
  },
  "ChIJhTdzUwBp1moRhwfKm4VCMAo": {
    "place_id": "ChIJhTdzUwBp1moRhwfKm4VCMAo",
    "name": "Rippon Lea Cafe & Nursery",
    "lat": -37.87850579999999,
    "lng": 144.9979574,
    "rating": null,
    "user_ratings_total": null,
    "details_fetched": true
  },
  "ChIJP5V7qMJp1moRbIbsLgbScyE": {
    "place_id": "ChIJP5V7qMJp1moRbIbsLgbScyE",
    "name": "Central Gourmet",
    "lat": -37.8628858,
    "lng": 145.0272565,
    "rating": 4,
    "user_ratings_total": 23,
    "details_fetched": true
  },
  "ChIJrfu6xIxp1moRCq_09msUPms": {
    "place_id": "ChIJrfu6xIxp1moRCq_09msUPms",
    "name": "Red Engine Kiosk (Caulfield)",
    "lat": -37.8771192,
    "lng": 145.0419154,
    "rating": 2.4,
    "user_ratings_total": 35,
    "details_fetched": true
  },
  "ChIJwbQMQQBp1moRAEnazGwb96Y": {
    "place_id": "ChIJwbQMQQBp1moRAEnazGwb96Y",
    "name": "Metro Cafe 3162",
    "lat": -37.877346,
    "lng": 145.0428778,
    "rating": null,
    "user_ratings_total": null,
    "details_fetched": true
  },
  "ChIJk2fRmQFp1moREsBc6r8NSAI": {
    "place_id": "ChIJk2fRmQFp1moREsBc6r8NSAI",
    "name": "Hunter's Cafe & Bar",
    "lat": -37.8750715,
    "lng": 145.0415379,
    "rating": 4.9,
    "user_ratings_total": 9,
    "details_fetched": true
  },
  "ChIJEeLrDgxq1moRbzp1oqj_IMQ": {
    "place_id": "ChIJEeLrDgxq1moRbzp1oqj_IMQ",
    "name": "East Malvern RSL Club & Bistro",
    "lat": -37.8717842,
    "lng": 145.0666198,
    "rating": 4.1,
    "user_ratings_total": 206,
    "details_fetched": true
  },
  "ChIJD0Q5e_Br1moR2S7k0TuAxbA": {
    "place_id": "ChIJD0Q5e_Br1moR2S7k0TuAxbA",
    "name": "FoodCo Group Melbourne",
    "lat": -37.8700204,
    "lng": 145.0615235,
    "rating": null,
    "user_ratings_total": null,
    "details_fetched": true
  },
  "ChIJm0k8tdBB1moRPfcr-aAipB4": {
    "place_id": "ChIJm0k8tdBB1moRPfcr-aAipB4",
    "name": "Ashburton Pool and Recreation Centre",
    "lat": -37.8668299,
    "lng": 145.0849281,
    "rating": 4.3,
    "user_ratings_total": 928,
    "details_fetched": true
  },
  "ChIJl9NJ2tRr1moRP4YIWHvPjuk": {
    "place_id": "ChIJl9NJ2tRr1moRP4YIWHvPjuk",
    "name": "Coffee By Kai",
    "lat": -37.873555,
    "lng": 145.0734949,
    "rating": 4.9,
    "user_ratings_total": 36,
    "details_fetched": true
  },
  "ChIJg5izGipr1moRcLr20TBc8PA": {
    "place_id": "ChIJg5izGipr1moRcLr20TBc8PA",
    "name": "Assettini Espresso",
    "lat": -37.8788161,
    "lng": 145.0786495,
    "rating": 4.6,
    "user_ratings_total": 59,
    "details_fetched": true
  },
  "ChIJRWIxdp5q1moRnvH81Y0AMpk": {
    "place_id": "ChIJRWIxdp5q1moRnvH81Y0AMpk",
    "name": "bp",
    "lat": -37.88281019999999,
    "lng": 145.1097074,
    "rating": 3.3,
    "user_ratings_total": 62,
    "details_fetched": true
  },
  "ChIJV-PBn2Zr1moRD3w--ngEjmM": {
    "place_id": "ChIJV-PBn2Zr1moRD3w--ngEjmM",
    "name": "Teaser Holmesglen Chadstone",
    "lat": -37.875276,
    "lng": 145.091888,
    "rating": 3.3,
    "user_ratings_total": 63,
    "details_fetched": true
  },
  "ChIJo9u5gZpr1moRehF1dImyfJ8": {
    "place_id": "ChIJo9u5gZpr1moRehF1dImyfJ8",
    "name": "Amfony's Cafe",
    "lat": -37.8714607,
    "lng": 145.0815004,
    "rating": 3,
    "user_ratings_total": 1,
    "details_fetched": true
  },
  "ChIJLaSHT4hq1moRqVr24dgK5MM": {
    "place_id": "ChIJLaSHT4hq1moRqVr24dgK5MM",
    "name": "Melbourne's Milk Bar",
    "lat": -37.887192,
    "lng": 145.0952384,
    "rating": 3,
    "user_ratings_total": 2,
    "details_fetched": true
  },
  "ChIJmc-IfUhB1moRxtNevnCc9aM": {
    "place_id": "ChIJmc-IfUhB1moRxtNevnCc9aM",
    "name": "The Silver Linings",
    "lat": -37.8749577,
    "lng": 145.1002896,
    "rating": 4.7,
    "user_ratings_total": 489,
    "details_fetched": true
  },
  "ChIJ2_QNnUdA1moRsbaCSCAEneY": {
    "place_id": "ChIJ2_QNnUdA1moRsbaCSCAEneY",
    "name": "Hyde n Seek",
    "lat": -37.8606669,
    "lng": 145.1070118,
    "rating": 4.5,
    "user_ratings_total": 383,
    "details_fetched": true
  },
  "ChIJq28i4nBB1moR5OsMSWzEkQg": {
    "place_id": "ChIJq28i4nBB1moR5OsMSWzEkQg",
    "name": "Sanjie's (Sri Lankan) Restaurant",
    "lat": -37.8737863,
    "lng": 145.1103504,
    "rating": 4,
    "user_ratings_total": 112,
    "details_fetched": true
  },
  "ChIJhffhx4VB1moRWD-KLjXqOS8": {
    "place_id": "ChIJhffhx4VB1moRWD-KLjXqOS8",
    "name": "Chasm & Brew",
    "lat": -37.8792651,
    "lng": 145.1145987,
    "rating": 4.9,
    "user_ratings_total": 61,
    "details_fetched": true
  },
  "ChIJtzoCYzpA1moRwQ6u94qdYQk": {
    "place_id": "ChIJtzoCYzpA1moRwQ6u94qdYQk",
    "name": "Stocksville",
    "lat": -37.8676416,
    "lng": 145.1054033,
    "rating": 4.6,
    "user_ratings_total": 380,
    "details_fetched": true
  },
  "ChIJAxh1d_xr1moRsxPqZSuTDw8": {
    "place_id": "ChIJAxh1d_xr1moRsxPqZSuTDw8",
    "name": "Stanley - Mount Waverley",
    "lat": -37.8945656,
    "lng": 145.1143041,
    "rating": 4.1,
    "user_ratings_total": 871,
    "details_fetched": true
  },
  "ChIJoWo-DRhi1moRfMcVwHQGp7s": {
    "place_id": "ChIJoWo-DRhi1moRfMcVwHQGp7s",
    "name": "36 Bank Cafe",
    "lat": -37.8611794,
    "lng": 144.8069272,
    "rating": 4.5,
    "user_ratings_total": 31,
    "details_fetched": true
  },
  "ChIJl3rqgJJh1moRfulsM6Tmmg4": {
    "place_id": "ChIJl3rqgJJh1moRfulsM6Tmmg4",
    "name": "Ampol Foodary Altona North",
    "lat": -37.8466852,
    "lng": 144.8088543,
    "rating": 3.7,
    "user_ratings_total": 244,
    "details_fetched": true
  },
  "ChIJFxzJE5xh1moRs71YkRaZ6jU": {
    "place_id": "ChIJFxzJE5xh1moRs71YkRaZ6jU",
    "name": "United Petroleum Altona (Pie Face)",
    "lat": -37.8482656,
    "lng": 144.8218851,
    "rating": 3.8,
    "user_ratings_total": 119,
    "details_fetched": true
  },
  "ChIJR5bc-adj1moRiEv01vjq4pk": {
    "place_id": "ChIJR5bc-adj1moRiEv01vjq4pk",
    "name": "Climb West Melbourne",
    "lat": -37.8589433,
    "lng": 144.8099708,
    "rating": 4.9,
    "user_ratings_total": 250,
    "details_fetched": true
  },
  "ChIJQX3Y5hli1moRJh1Yuf_1Dqw": {
    "place_id": "ChIJQX3Y5hli1moRJh1Yuf_1Dqw",
    "name": "FTA Coffee",
    "lat": -37.8603225,
    "lng": 144.8028401,
    "rating": 5,
    "user_ratings_total": 8,
    "details_fetched": true
  },
  "ChIJc9eyG81m1moREri7fzvbg6g": {
    "place_id": "ChIJc9eyG81m1moREri7fzvbg6g",
    "name": "Tumbles Playhouse",
    "lat": -37.8497009,
    "lng": 144.8750634,
    "rating": 4.5,
    "user_ratings_total": 459,
    "details_fetched": true
  },
  "ChIJ5xlSTy1h1moRHQwWO16LuaI": {
    "place_id": "ChIJ5xlSTy1h1moRHQwWO16LuaI",
    "name": "Wilde Interiors and Flowers",
    "lat": -37.846254,
    "lng": 144.872473,
    "rating": 5,
    "user_ratings_total": 11,
    "details_fetched": true
  },
  "ChIJffd9fOhm1moRwtCDPqo8gLg": {
    "place_id": "ChIJffd9fOhm1moRwtCDPqo8gLg",
    "name": "Sassi Cafe & Bar Williamstown",
    "lat": -37.8560848,
    "lng": 144.8974328,
    "rating": null,
    "user_ratings_total": null,
    "details_fetched": true
  },
  "ChIJMcEul3Fo1moRvTy-E5cqaDU": {
    "place_id": "ChIJMcEul3Fo1moRvTy-E5cqaDU",
    "name": "Frankie's Top Shop.",
    "lat": -37.8580071,
    "lng": 144.9703812,
    "rating": 4.3,
    "user_ratings_total": 654,
    "details_fetched": true
  },
  "ChIJhYiETgRn1moRI45FoW3Z7MY": {
    "place_id": "ChIJhYiETgRn1moRI45FoW3Z7MY",
    "name": "Mr Danks",
    "lat": -37.84950879999999,
    "lng": 144.9561717,
    "rating": 3.6,
    "user_ratings_total": 5,
    "details_fetched": true
  },
  "ChIJM74QQCpn1moR4FMRRT2j6ZQ": {
    "place_id": "ChIJM74QQCpn1moR4FMRRT2j6ZQ",
    "name": "Palm Tree Kiosk",
    "lat": -37.8471341,
    "lng": 144.9466738,
    "rating": 4.3,
    "user_ratings_total": 16,
    "details_fetched": true
  },
  "ChIJE2bTBmxo1moRQ2ZUyqB3BGU": {
    "place_id": "ChIJE2bTBmxo1moRQ2ZUyqB3BGU",
    "name": "Off The Rails",
    "lat": -37.8592634,
    "lng": 144.9773182,
    "rating": null,
    "user_ratings_total": null,
    "details_fetched": true
  },
  "ChIJR1mhhSNp1moRB2l1MObNUfY": {
    "place_id": "ChIJR1mhhSNp1moRB2l1MObNUfY",
    "name": "Annamese Kitchen",
    "lat": -37.8643319,
    "lng": 144.9844425,
    "rating": 4.9,
    "user_ratings_total": 20,
    "details_fetched": true
  },
  "ChIJPYClWhdo1moRFlfbP6Emzik": {
    "place_id": "ChIJPYClWhdo1moRFlfbP6Emzik",
    "name": "View Melbourne",
    "lat": -37.84634330000001,
    "lng": 144.9784634,
    "rating": 4,
    "user_ratings_total": 1368,
    "details_fetched": true
  },
  "ChIJd1aiCito1moRNMT8RWVmGn8": {
    "place_id": "ChIJd1aiCito1moRNMT8RWVmGn8",
    "name": "McDonald's Prahran",
    "lat": -37.8481592,
    "lng": 145.0025271,
    "rating": 3.5,
    "user_ratings_total": 2071,
    "details_fetched": true
  },
  "ChIJr-zk5CVo1moRAujMZ-ADKcs": {
    "place_id": "ChIJr-zk5CVo1moRAujMZ-ADKcs",
    "name": "Miura Lounge",
    "lat": -37.84668319999999,
    "lng": 144.9935761,
    "rating": 4,
    "user_ratings_total": 298,
    "details_fetched": true
  },
  "ChIJMbvFpiho1moR4LpN_6SsdEg": {
    "place_id": "ChIJMbvFpiho1moR4LpN_6SsdEg",
    "name": "McDonald's Chapel Street",
    "lat": -37.845765,
    "lng": 144.994491,
    "rating": 3.4,
    "user_ratings_total": 1059,
    "details_fetched": true
  },
  "ChIJqV2W8eBp1moRr5rKEsPncZo": {
    "place_id": "ChIJqV2W8eBp1moRr5rKEsPncZo",
    "name": "Giorgios Restaurant",
    "lat": -37.8565025,
    "lng": 145.0291593,
    "rating": 4.3,
    "user_ratings_total": 838,
    "details_fetched": true
  },
  "ChIJeX9D2stp1moRe0n4VPPLbfs": {
    "place_id": "ChIJeX9D2stp1moRe0n4VPPLbfs",
    "name": "Woolworths Metro Caulfield North",
    "lat": -37.863091,
    "lng": 145.0102314,
    "rating": 3.8,
    "user_ratings_total": 319,
    "details_fetched": true
  },
  "ChIJd_amRwBp1moRAru1H4f_aDo": {
    "place_id": "ChIJd_amRwBp1moRAru1H4f_aDo",
    "name": "Plain Sailing",
    "lat": -37.86052780000001,
    "lng": 145.0101449,
    "rating": null,
    "user_ratings_total": null,
    "details_fetched": true
  },
  "ChIJGaXBIuhp1moRfb-3E2m83QE": {
    "place_id": "ChIJGaXBIuhp1moRfb-3E2m83QE",
    "name": "The Classy Brand",
    "lat": -37.8638501,
    "lng": 145.0279016,
    "rating": 5,
    "user_ratings_total": 1,
    "details_fetched": true
  },
  "ChIJXXrIggZC1moRsf8QqH7LSi4": {
    "place_id": "ChIJXXrIggZC1moRsf8QqH7LSi4",
    "name": "Saint Jaxie Cafe",
    "lat": -37.853346,
    "lng": 145.041717,
    "rating": 4.3,
    "user_ratings_total": 374,
    "details_fetched": true
  },
  "ChIJj4ht9gNC1moRgsnsC_7Fz24": {
    "place_id": "ChIJj4ht9gNC1moRgsnsC_7Fz24",
    "name": "Mr Foxx",
    "lat": -37.853293,
    "lng": 145.0439691,
    "rating": 4,
    "user_ratings_total": 563,
    "details_fetched": true
  },
  "ChIJKQR7lxpC1moRbcHi1qhVqlg": {
    "place_id": "ChIJKQR7lxpC1moRbcHi1qhVqlg",
    "name": "GRAN CAFFE",
    "lat": -37.84634330000001,
    "lng": 145.0391603,
    "rating": 4,
    "user_ratings_total": 2,
    "details_fetched": true
  },
  "ChIJYXZRDABp1moRgAXgAJd3MJs": {
    "place_id": "ChIJYXZRDABp1moRgAXgAJd3MJs",
    "name": "Starberry Lane",
    "lat": -37.8622365,
    "lng": 145.0294746,
    "rating": 5,
    "user_ratings_total": 28,
    "details_fetched": true
  },
  "ChIJY3AS06Vp1moRP-ivwQlimmE": {
    "place_id": "ChIJY3AS06Vp1moRP-ivwQlimmE",
    "name": "Terrace Cafe",
    "lat": -37.86151160000001,
    "lng": 145.0336742,
    "rating": 3.2,
    "user_ratings_total": 38,
    "details_fetched": true
  },
  "ChIJW5eiRPBp1moRIPtiFGsttII": {
    "place_id": "ChIJW5eiRPBp1moRIPtiFGsttII",
    "name": "Kelsos Sandwich Shoppe",
    "lat": -37.8579553,
    "lng": 145.0294295,
    "rating": 4.6,
    "user_ratings_total": 252,
    "details_fetched": true
  },
  "ChIJN-dp7ONB1moRLWQdwRxTUhs": {
    "place_id": "ChIJN-dp7ONB1moRLWQdwRxTUhs",
    "name": "QT Kitchen",
    "lat": -37.86182489999999,
    "lng": 145.0648443,
    "rating": 4.8,
    "user_ratings_total": 1066,
    "details_fetched": true
  },
  "ChIJVXVpftxB1moRLcnr8YqqB5k": {
    "place_id": "ChIJVXVpftxB1moRLcnr8YqqB5k",
    "name": "Mr Burton",
    "lat": -37.8628625,
    "lng": 145.076642,
    "rating": 4.4,
    "user_ratings_total": 386,
    "details_fetched": true
  },
  "ChIJVWXtxU1A1moRLXhZiMF5WYE": {
    "place_id": "ChIJVWXtxU1A1moRLXhZiMF5WYE",
    "name": "McDonald's Burwood",
    "lat": -37.8508719,
    "lng": 145.0977406,
    "rating": 3.5,
    "user_ratings_total": 2332,
    "details_fetched": true
  },
  "ChIJiQ2T1ZNB1moR3eQvv4KHbns": {
    "place_id": "ChIJiQ2T1ZNB1moR3eQvv4KHbns",
    "name": "Bé Ơi",
    "lat": -37.8563623,
    "lng": 145.1140803,
    "rating": 4.4,
    "user_ratings_total": 99,
    "details_fetched": true
  },
  "ChIJLSI7J35A1moRcZwsutyPcBk": {
    "place_id": "ChIJLSI7J35A1moRcZwsutyPcBk",
    "name": "RSPCA Victoria Burwood East",
    "lat": -37.8517025,
    "lng": 145.1340484,
    "rating": 4.2,
    "user_ratings_total": 2113,
    "details_fetched": true
  },
  "ChIJWzgErLZB1moR3DbrhY7LTBc": {
    "place_id": "ChIJWzgErLZB1moR3DbrhY7LTBc",
    "name": "Soulful Home Cafe",
    "lat": -37.8777914,
    "lng": 145.1294085,
    "rating": 4.6,
    "user_ratings_total": 1098,
    "details_fetched": true
  },
  "ChIJMyk9YClB1moRXCstQosidWk": {
    "place_id": "ChIJMyk9YClB1moRXCstQosidWk",
    "name": "Hamlet Mount Waverley",
    "lat": -37.8644796,
    "lng": 145.1350614,
    "rating": 4.4,
    "user_ratings_total": 436,
    "details_fetched": true
  },
  "ChIJu6Hqc2FA1moR-ICG-0NLdWY": {
    "place_id": "ChIJu6Hqc2FA1moR-ICG-0NLdWY",
    "name": "Food4U",
    "lat": -37.8497083,
    "lng": 145.1199303,
    "rating": 4.4,
    "user_ratings_total": 55,
    "details_fetched": true
  },
  "ChIJF6CCK2JA1moRMwWfhII_RJI": {
    "place_id": "ChIJF6CCK2JA1moRMwWfhII_RJI",
    "name": "Green N Wood Espresso",
    "lat": -37.8496747,
    "lng": 145.1213372,
    "rating": 4,
    "user_ratings_total": 4,
    "details_fetched": true
  },
  "ChIJO3GNHUNB1moRtrsaN1GRvhc": {
    "place_id": "ChIJO3GNHUNB1moRtrsaN1GRvhc",
    "name": "Sheila Coffee & Food cafe",
    "lat": -37.852578,
    "lng": 145.1325909,
    "rating": 4.8,
    "user_ratings_total": 122,
    "details_fetched": true
  },
  "ChIJAwttJS1h1moRzooNWjR65Vo": {
    "place_id": "ChIJAwttJS1h1moRzooNWjR65Vo",
    "name": "Blend Cafe Altona North",
    "lat": -37.83913709999999,
    "lng": 144.8252371,
    "rating": 4.9,
    "user_ratings_total": 68,
    "details_fetched": true
  },
  "ChIJI9X47vJh1moRLFYP9QITbnQ": {
    "place_id": "ChIJI9X47vJh1moRLFYP9QITbnQ",
    "name": "Cupa4u",
    "lat": -37.8370816,
    "lng": 144.8543073,
    "rating": null,
    "user_ratings_total": null,
    "details_fetched": true
  },
  "ChIJUTOjtS5h1moRro9dAi6NeG8": {
    "place_id": "ChIJUTOjtS5h1moRro9dAi6NeG8",
    "name": "Pura Milk",
    "lat": -37.8404654,
    "lng": 144.8663472,
    "rating": null,
    "user_ratings_total": null,
    "details_fetched": true
  },
  "ChIJT2c73cxh1moRUA1Q0ccDbEs": {
    "place_id": "ChIJT2c73cxh1moRUA1Q0ccDbEs",
    "name": "The Circle Bites Cafe",
    "lat": -37.83681600000001,
    "lng": 144.8631735,
    "rating": 5,
    "user_ratings_total": 2,
    "details_fetched": true
  },
  "ChIJS1W77O9n1moRylAM3O8836A": {
    "place_id": "ChIJS1W77O9n1moRylAM3O8836A",
    "name": "INDI-KITCH",
    "lat": -37.8408775,
    "lng": 144.8826847,
    "rating": 4.8,
    "user_ratings_total": 80,
    "details_fetched": true
  },
  "ChIJl_F9qtBg1moRDHpuQfifZWk": {
    "place_id": "ChIJl_F9qtBg1moRDHpuQfifZWk",
    "name": "Mouna's Sweets",
    "lat": -37.8323572,
    "lng": 144.8613845,
    "rating": 4.7,
    "user_ratings_total": 398,
    "details_fetched": true
  },
  "ChIJi2w2vgln1moRECLUBrpSoU0": {
    "place_id": "ChIJi2w2vgln1moRECLUBrpSoU0",
    "name": "Caps Cafe",
    "lat": -37.83977369999999,
    "lng": 144.9154032,
    "rating": 4.5,
    "user_ratings_total": 39,
    "details_fetched": true
  },
  "ChIJX3hX7ZVn1moRT13HwBxHyC0": {
    "place_id": "ChIJX3hX7ZVn1moRT13HwBxHyC0",
    "name": "Commuter Coffee",
    "lat": -37.8353815,
    "lng": 144.9218264,
    "rating": 5,
    "user_ratings_total": 17,
    "details_fetched": true
  },
  "ChIJVYRvRlhn1moRCKlup5cGI7k": {
    "place_id": "ChIJVYRvRlhn1moRCKlup5cGI7k",
    "name": "LUSH Social House",
    "lat": -37.8338548,
    "lng": 144.919572,
    "rating": 4.3,
    "user_ratings_total": 12,
    "details_fetched": true
  },
  "ChIJU9YHGcln1moRR-4xwNEAHzU": {
    "place_id": "ChIJU9YHGcln1moRR-4xwNEAHzU",
    "name": "Blitz Drinks (formerly Lucky Cat)",
    "lat": -37.8407319,
    "lng": 144.9406669,
    "rating": 4.5,
    "user_ratings_total": 65,
    "details_fetched": true
  },
  "ChIJRb_h9JNn1moR90gVo7izlHg": {
    "place_id": "ChIJRb_h9JNn1moR90gVo7izlHg",
    "name": "Pura Milk Bar",
    "lat": -37.8355538,
    "lng": 144.9349296,
    "rating": null,
    "user_ratings_total": null,
    "details_fetched": true
  },
  "ChIJmcB7FQBn1moRw4GtcAYYJsw": {
    "place_id": "ChIJmcB7FQBn1moRw4GtcAYYJsw",
    "name": "Eric’s Deli",
    "lat": -37.8440879,
    "lng": 144.9515161,
    "rating": 4.7,
    "user_ratings_total": 20,
    "details_fetched": true
  },
  "ChIJs8YuH_pn1moRzI-SggpO0Qk": {
    "place_id": "ChIJs8YuH_pn1moRzI-SggpO0Qk",
    "name": "Carrera Car Wash",
    "lat": -37.832392,
    "lng": 144.951262,
    "rating": 3.4,
    "user_ratings_total": 526,
    "details_fetched": true
  },
  "ChIJf08DhAZo1moRBF_4w9k-7o0": {
    "place_id": "ChIJf08DhAZo1moRBF_4w9k-7o0",
    "name": "Boatshed Cafe",
    "lat": -37.840381,
    "lng": 144.966939,
    "rating": 3.7,
    "user_ratings_total": 241,
    "details_fetched": true
  },
  "ChIJF9debeRn1moRthBFvF67GAQ": {
    "place_id": "ChIJF9debeRn1moRthBFvF67GAQ",
    "name": "Laurent Bakery Albert Park",
    "lat": -37.841273,
    "lng": 144.954968,
    "rating": 3.8,
    "user_ratings_total": 162,
    "details_fetched": true
  },
  "ChIJIx8g5jxn1moRsVpqkO6pJo8": {
    "place_id": "ChIJIx8g5jxn1moRsVpqkO6pJo8",
    "name": "Rebello - A Slice of Italy",
    "lat": -37.84542860000001,
    "lng": 144.9588458,
    "rating": 4.9,
    "user_ratings_total": 454,
    "details_fetched": true
  },
  "ChIJ_5KiOQBp1moRinUJD7wb9Vo": {
    "place_id": "ChIJ_5KiOQBp1moRinUJD7wb9Vo",
    "name": "Flying Turtle vending machine",
    "lat": -37.8436007,
    "lng": 144.9620689,
    "rating": 5,
    "user_ratings_total": 2,
    "details_fetched": true
  },
  "ChIJ-cLyZAJo1moRxCvyuyYZ1po": {
    "place_id": "ChIJ-cLyZAJo1moRxCvyuyYZ1po",
    "name": "bp",
    "lat": -37.83432999999999,
    "lng": 144.9703123,
    "rating": 3.1,
    "user_ratings_total": 178,
    "details_fetched": true
  },
  "ChIJRQqLFxxo1moRHmwKhOoadbQ": {
    "place_id": "ChIJRQqLFxxo1moRHmwKhOoadbQ",
    "name": "Commodity Cafe",
    "lat": -37.83945519999999,
    "lng": 144.9773673,
    "rating": 4.3,
    "user_ratings_total": 56,
    "details_fetched": true
  },
  "ChIJkcfW5xxo1moRzcCNg3Hk-Ic": {
    "place_id": "ChIJkcfW5xxo1moRzcCNg3Hk-Ic",
    "name": "Niche Cafe",
    "lat": -37.8374408,
    "lng": 144.9739277,
    "rating": 4,
    "user_ratings_total": 2,
    "details_fetched": true
  },
  "ChIJZcjmWCJo1moRwCI7NKurbco": {
    "place_id": "ChIJZcjmWCJo1moRwCI7NKurbco",
    "name": "Ampol Foodary South Yarra",
    "lat": -37.84543310000001,
    "lng": 144.9854169,
    "rating": 3.8,
    "user_ratings_total": 382,
    "details_fetched": true
  },
  "ChIJq6qqqroonqoR9Ehrngro2po": {
    "place_id": "ChIJq6qqqroonqoR9Ehrngro2po",
    "name": "Espresso To Go!",
    "lat": -37.8368865,
    "lng": 144.9751762,
    "rating": null,
    "user_ratings_total": null,
    "details_fetched": true
  },
  "ChIJTV7l5ABo1moRxhMW3MEwMAA": {
    "place_id": "ChIJTV7l5ABo1moRxhMW3MEwMAA",
    "name": "KUU Café + Japanese kitchen.",
    "lat": -37.8344889,
    "lng": 144.9634745,
    "rating": 4.5,
    "user_ratings_total": 968,
    "details_fetched": true
  },
  "ChIJWxD1_qlC1moRC-dzHfNAuIA": {
    "place_id": "ChIJWxD1_qlC1moRC-dzHfNAuIA",
    "name": "Ampol Foodary South Melbourne",
    "lat": -37.8322673,
    "lng": 144.9661803,
    "rating": 3.9,
    "user_ratings_total": 412,
    "details_fetched": true
  },
  "ChIJi2b9jB1o1moRv-GkwgAKu0M": {
    "place_id": "ChIJi2b9jB1o1moRv-GkwgAKu0M",
    "name": "McDonald's St Kilda Road",
    "lat": -37.8361381,
    "lng": 144.9761293,
    "rating": 3.5,
    "user_ratings_total": 1415,
    "details_fetched": true
  },
  "ChIJlzDxDhRC1moRD0-8AYcjBvg": {
    "place_id": "ChIJlzDxDhRC1moRD0-8AYcjBvg",
    "name": "Croutons Fine Food",
    "lat": -37.8401801,
    "lng": 145.0320793,
    "rating": 3.7,
    "user_ratings_total": 75,
    "details_fetched": true
  },
  "ChIJj7EpFQBp1moRoVgOfqPytno": {
    "place_id": "ChIJj7EpFQBp1moRoVgOfqPytno",
    "name": "Ace Café - Orrong Park",
    "lat": -37.8514739,
    "lng": 145.0104452,
    "rating": 4.8,
    "user_ratings_total": 8,
    "details_fetched": true
  },
  "ChIJVasfzZlp1moRztMhZriYVdc": {
    "place_id": "ChIJVasfzZlp1moRztMhZriYVdc",
    "name": "Sum of Us Cafe",
    "lat": -37.85399489999999,
    "lng": 145.0080278,
    "rating": 4.4,
    "user_ratings_total": 33,
    "details_fetched": true
  },
  "ChIJgxMKpjFC1moRhYM8PLoi2Rw": {
    "place_id": "ChIJgxMKpjFC1moRhYM8PLoi2Rw",
    "name": "Ignite Cafe",
    "lat": -37.8341637,
    "lng": 145.0589436,
    "rating": 4.7,
    "user_ratings_total": 27,
    "details_fetched": true
  },
  "ChIJkz3oMABD1moRNWBBOEBpWP8": {
    "place_id": "ChIJkz3oMABD1moRNWBBOEBpWP8",
    "name": "1446 Malvern Road",
    "lat": -37.8536351,
    "lng": 145.0447303,
    "rating": null,
    "user_ratings_total": null,
    "details_fetched": true
  },
  "ChIJh8Qr9thB1moRAb3jIB781jg": {
    "place_id": "ChIJh8Qr9thB1moRAb3jIB781jg",
    "name": "The Courtyard",
    "lat": -37.8458631,
    "lng": 145.0542881,
    "rating": 3.7,
    "user_ratings_total": 3,
    "details_fetched": true
  },
  "ChIJoaqussJB1moR0UzGGv7gfa4": {
    "place_id": "ChIJoaqussJB1moR0UzGGv7gfa4",
    "name": "Banksia Burwood",
    "lat": -37.8437797,
    "lng": 145.0987814,
    "rating": 4.3,
    "user_ratings_total": 46,
    "details_fetched": true
  },
  "ChIJkewfKwBB1moR9WgSATU7BGs": {
    "place_id": "ChIJkewfKwBB1moR9WgSATU7BGs",
    "name": "Miss Frank",
    "lat": -37.8357348,
    "lng": 145.0931695,
    "rating": 4.1,
    "user_ratings_total": 580,
    "details_fetched": true
  },
  "ChIJd3lU4RBB1moRBMYemgPJUoY": {
    "place_id": "ChIJd3lU4RBB1moRBMYemgPJUoY",
    "name": "Little Bang Espresso",
    "lat": -37.8448972,
    "lng": 145.1117583,
    "rating": 4.8,
    "user_ratings_total": 36,
    "details_fetched": true
  },
  "ChIJ9VfXZfdA1moRzAGREqcMQRM": {
    "place_id": "ChIJ9VfXZfdA1moRzAGREqcMQRM",
    "name": "Tea House Cafe",
    "lat": -37.8389122,
    "lng": 145.104896,
    "rating": 3,
    "user_ratings_total": 1,
    "details_fetched": true
  },
  "ChIJKanI3_BA1moRJSJLgUcrdTw": {
    "place_id": "ChIJKanI3_BA1moRJSJLgUcrdTw",
    "name": "Sis N Me Café",
    "lat": -37.8370149,
    "lng": 145.1070469,
    "rating": 4.3,
    "user_ratings_total": 133,
    "details_fetched": true
  },
  "ChIJ9aWxD-hB1moRbNjegjOZ8TM": {
    "place_id": "ChIJ9aWxD-hB1moRbNjegjOZ8TM",
    "name": "Marazone Cafe",
    "lat": -37.8361614,
    "lng": 145.120713,
    "rating": 4.6,
    "user_ratings_total": 163,
    "details_fetched": true
  },
  "ChIJpWcIOwNB1moRwRjpG8zLFNw": {
    "place_id": "ChIJpWcIOwNB1moRwRjpG8zLFNw",
    "name": "Anne’s Pantry Box Hill South",
    "lat": -37.8404929,
    "lng": 145.1338975,
    "rating": 3.9,
    "user_ratings_total": 117,
    "details_fetched": true
  },
  "ChIJXdTRw6xh1moRkpGCJpgfCWk": {
    "place_id": "ChIJXdTRw6xh1moRkpGCJpgfCWk",
    "name": "McDonald's Brooklyn",
    "lat": -37.8229872,
    "lng": 144.8245791,
    "rating": 3.6,
    "user_ratings_total": 744,
    "details_fetched": true
  },
  "ChIJib9lpCBh1moRElhwH1Bf1Jc": {
    "place_id": "ChIJib9lpCBh1moRElhwH1Bf1Jc",
    "name": "Harry’s",
    "lat": -37.8297074,
    "lng": 144.796917,
    "rating": 5,
    "user_ratings_total": 4,
    "details_fetched": true
  },
  "ChIJudJMSXhh1moR_iLO18RlV_k": {
    "place_id": "ChIJudJMSXhh1moR_iLO18RlV_k",
    "name": "Kimmie's Cafe and Catering",
    "lat": -37.8240618,
    "lng": 144.8016586,
    "rating": 4.8,
    "user_ratings_total": 272,
    "details_fetched": true
  },
  "ChIJSZMSqcVh1moRrG8K-oi7reE": {
    "place_id": "ChIJSZMSqcVh1moRrG8K-oi7reE",
    "name": "Popeye's Cafe",
    "lat": -37.8246918,
    "lng": 144.7991943,
    "rating": 4.1,
    "user_ratings_total": 72,
    "details_fetched": true
  },
  "ChIJX9JB9Cth1moR3v_5KZibCXw": {
    "place_id": "ChIJX9JB9Cth1moR3v_5KZibCXw",
    "name": "Brooklyn Cafe",
    "lat": -37.8238875,
    "lng": 144.822769,
    "rating": 4.5,
    "user_ratings_total": 19,
    "details_fetched": true
  },
  "ChIJkcAf4Xlh1moRxHe7ujZp-_g": {
    "place_id": "ChIJkcAf4Xlh1moRxHe7ujZp-_g",
    "name": "Ma Blend Cafe + Bar",
    "lat": -37.823145,
    "lng": 144.7976347,
    "rating": 4.6,
    "user_ratings_total": 21,
    "details_fetched": true
  },
  "ChIJd5vxLgBh1moRBm_wypMxQI4": {
    "place_id": "ChIJd5vxLgBh1moRBm_wypMxQI4",
    "name": "Wheelys Melbourne..",
    "lat": -37.8241793,
    "lng": 144.8313428,
    "rating": 4.8,
    "user_ratings_total": 21,
    "details_fetched": true
  },
  "ChIJx_U66v9g1moRKmWAJ0pcPtc": {
    "place_id": "ChIJx_U66v9g1moRKmWAJ0pcPtc",
    "name": "Astron Brooklyn South",
    "lat": -37.82242409999999,
    "lng": 144.8303646,
    "rating": 3.3,
    "user_ratings_total": 27,
    "details_fetched": true
  },
  "ChIJCUrHu1Jg1moRrdY_ojWyQMU": {
    "place_id": "ChIJCUrHu1Jg1moRrdY_ojWyQMU",
    "name": "Ampol Foodary Laverton North",
    "lat": -37.8194219,
    "lng": 144.8192291,
    "rating": 3.8,
    "user_ratings_total": 112,
    "details_fetched": true
  },
  "ChIJFZ5FTR5h1moR5ERkfFzEl4k": {
    "place_id": "ChIJFZ5FTR5h1moR5ERkfFzEl4k",
    "name": "McDonald's Altona",
    "lat": -37.8315704,
    "lng": 144.8476547,
    "rating": 3.5,
    "user_ratings_total": 2266,
    "details_fetched": true
  },
  "ChIJKfc5x-th1moR0tsLtYvbajY": {
    "place_id": "ChIJKfc5x-th1moR0tsLtYvbajY",
    "name": "FPT TG FG.",
    "lat": -37.8209991,
    "lng": 144.8318457,
    "rating": null,
    "user_ratings_total": null,
    "details_fetched": true
  },
  "ChIJ0xQAuHhh1moRb2i4IwfKvy0": {
    "place_id": "ChIJ0xQAuHhh1moRb2i4IwfKvy0",
    "name": "The Coffee Club Cafe - Altona Gate",
    "lat": -37.8281315,
    "lng": 144.8471683,
    "rating": 3.5,
    "user_ratings_total": 140,
    "details_fetched": true
  },
  "ChIJS7Rwr_5g1moRS6KIqEW2TD8": {
    "place_id": "ChIJS7Rwr_5g1moRS6KIqEW2TD8",
    "name": "Tico's 2 Brooklyn",
    "lat": -37.82058079999999,
    "lng": 144.8341311,
    "rating": 4,
    "user_ratings_total": 83,
    "details_fetched": true
  },
  "ChIJZ5VsTWJh1moRh1K_12B-UGc": {
    "place_id": "ChIJZ5VsTWJh1moRh1K_12B-UGc",
    "name": "Muffin Break Altona Gate",
    "lat": -37.8278645,
    "lng": 144.848057,
    "rating": 3.4,
    "user_ratings_total": 9,
    "details_fetched": true
  },
  "ChIJ0VoyRI1h1moRDX9HSBcLdZM": {
    "place_id": "ChIJ0VoyRI1h1moRDX9HSBcLdZM",
    "name": "Mister Truong's",
    "lat": -37.8191415,
    "lng": 144.8379489,
    "rating": 4.7,
    "user_ratings_total": 121,
    "details_fetched": true
  },
  "ChIJeyEVyv5n1moRNYns9avbMSs": {
    "place_id": "ChIJeyEVyv5n1moRNYns9avbMSs",
    "name": "Spring Rolling - Vietnamese Food Bar",
    "lat": -37.8297953,
    "lng": 144.8816357,
    "rating": 4.7,
    "user_ratings_total": 158,
    "details_fetched": true
  },
  "ChIJ9Z3DQt5n1moR-yE31BHh0jA": {
    "place_id": "ChIJ9Z3DQt5n1moR-yE31BHh0jA",
    "name": "Scienceworks - The Cafe",
    "lat": -37.83130939999999,
    "lng": 144.8936185,
    "rating": 1.6,
    "user_ratings_total": 29,
    "details_fetched": true
  },
  "ChIJqbziy0hn1moRymkYXvp-Dxs": {
    "place_id": "ChIJqbziy0hn1moRymkYXvp-Dxs",
    "name": "Dlux Hand Car Wash, Detailing & Cafe",
    "lat": -37.8209226,
    "lng": 144.8822896,
    "rating": 4.6,
    "user_ratings_total": 474,
    "details_fetched": true
  },
  "ChIJY-hRsw1n1moRNCnkw0oHxxw": {
    "place_id": "ChIJY-hRsw1n1moRNCnkw0oHxxw",
    "name": "United Petroleum Yarraville (Pie Face)",
    "lat": -37.820024,
    "lng": 144.8825343,
    "rating": 2.9,
    "user_ratings_total": 18,
    "details_fetched": true
  },
  "ChIJSbcgt51n1moR_lYjHZObNqw": {
    "place_id": "ChIJSbcgt51n1moR_lYjHZObNqw",
    "name": "United Petroleum West Gate South (Pie Face)",
    "lat": -37.8308667,
    "lng": 144.9188413,
    "rating": 2.9,
    "user_ratings_total": 74,
    "details_fetched": true
  },
  "ChIJmT-9bXFn1moRsFu2alrNQZQ": {
    "place_id": "ChIJmT-9bXFn1moRsFu2alrNQZQ",
    "name": "The Wharf Bake House",
    "lat": -37.82652220000001,
    "lng": 144.9096635,
    "rating": 4.6,
    "user_ratings_total": 40,
    "details_fetched": true
  },
  "ChIJLXFwG19n1moRaRZmHgjO3UQ": {
    "place_id": "ChIJLXFwG19n1moRaRZmHgjO3UQ",
    "name": "Mr & Mrs Pickles",
    "lat": -37.8262169,
    "lng": 144.9105967,
    "rating": 4.9,
    "user_ratings_total": 15,
    "details_fetched": true
  },
  "ChIJOT93wIdn1moR2NSHHINhpEg": {
    "place_id": "ChIJOT93wIdn1moR2NSHHINhpEg",
    "name": "3013 Bagels",
    "lat": -37.8204523,
    "lng": 144.8939671,
    "rating": 4.5,
    "user_ratings_total": 179,
    "details_fetched": true
  },
  "ChIJSbcgt51n1moRBFSczNVuXh0": {
    "place_id": "ChIJSbcgt51n1moRBFSczNVuXh0",
    "name": "United Petroleum West Gate North (Pie Face)",
    "lat": -37.82904,
    "lng": 144.919287,
    "rating": 3.1,
    "user_ratings_total": 69,
    "details_fetched": true
  },
  "ChIJywejfe9n1moRGVn-bVT8ggI": {
    "place_id": "ChIJywejfe9n1moRGVn-bVT8ggI",
    "name": "BlocHaus Bouldering Port Melbourne",
    "lat": -37.8322558,
    "lng": 144.9216682,
    "rating": 4.8,
    "user_ratings_total": 699,
    "details_fetched": true
  },
  "ChIJRTftqo1n1moRe_MmFCgbpGM": {
    "place_id": "ChIJRTftqo1n1moRe_MmFCgbpGM",
    "name": "Coe & Coe",
    "lat": -37.82975190000001,
    "lng": 144.9360443,
    "rating": 4.6,
    "user_ratings_total": 229,
    "details_fetched": true
  },
  "ChIJbXZ1qAFn1moRpWygOku09YI": {
    "place_id": "ChIJbXZ1qAFn1moRpWygOku09YI",
    "name": "The Cheeky Beans",
    "lat": -37.8255212,
    "lng": 144.9218445,
    "rating": 4.8,
    "user_ratings_total": 35,
    "details_fetched": true
  },
  "ChIJFUaFCTpn1moRvG8lMHInoGk": {
    "place_id": "ChIJFUaFCTpn1moRvG8lMHInoGk",
    "name": "Peaches by CourtSide Diner",
    "lat": -37.8297228,
    "lng": 144.9325644,
    "rating": 5,
    "user_ratings_total": 19,
    "details_fetched": true
  },
  "ChIJEWw6AwBn1moRULCP4u5o4Hg": {
    "place_id": "ChIJEWw6AwBn1moRULCP4u5o4Hg",
    "name": "650 Sips",
    "lat": -37.8209816,
    "lng": 144.9210623,
    "rating": 4.8,
    "user_ratings_total": 4,
    "details_fetched": true
  },
  "ChIJ8UahXPFn1moRHyyNq9pxj0g": {
    "place_id": "ChIJ8UahXPFn1moRHyyNq9pxj0g",
    "name": "Tree View Cafe",
    "lat": -37.83077729999999,
    "lng": 144.9456736,
    "rating": 4,
    "user_ratings_total": 25,
    "details_fetched": true
  },
  "ChIJ1X8CrYln1moR9EDWeZTCdNA": {
    "place_id": "ChIJ1X8CrYln1moR9EDWeZTCdNA",
    "name": "Bolte Cafe And Kebab",
    "lat": -37.8219351,
    "lng": 144.9310061,
    "rating": 4.2,
    "user_ratings_total": 110,
    "details_fetched": true
  },
  "ChIJy1_TU19d1moR0KPuBpX_u_U": {
    "place_id": "ChIJy1_TU19d1moR0KPuBpX_u_U",
    "name": "Mad Duck Cafe",
    "lat": -37.8244423,
    "lng": 144.9444334,
    "rating": 4.1,
    "user_ratings_total": 225,
    "details_fetched": true
  },
  "ChIJ_w1VXlhd1moRla7Ee6iML1g": {
    "place_id": "ChIJ_w1VXlhd1moRla7Ee6iML1g",
    "name": "Hooks At The Yarra",
    "lat": -37.8240512,
    "lng": 144.9477587,
    "rating": 4,
    "user_ratings_total": 490,
    "details_fetched": true
  },
  "ChIJz3RqRwBn1moR7wbbTkXFFT0": {
    "place_id": "ChIJz3RqRwBn1moR7wbbTkXFFT0",
    "name": "Port Melbourne Hardware Cafe",
    "lat": -37.8315953,
    "lng": 144.9386737,
    "rating": 4,
    "user_ratings_total": 1,
    "details_fetched": true
  },
  "ChIJWXdjjVFd1moRh_LdkkyRy5s": {
    "place_id": "ChIJWXdjjVFd1moRh_LdkkyRy5s",
    "name": "Best Western Melbourne City Hotel",
    "lat": -37.8206276,
    "lng": 144.9551461,
    "rating": 3.9,
    "user_ratings_total": 1066,
    "details_fetched": true
  },
  "ChIJOZlpsFVd1moRBMbxLIH85uc": {
    "place_id": "ChIJOZlpsFVd1moRBMbxLIH85uc",
    "name": "bp",
    "lat": -37.8275328,
    "lng": 144.9576705,
    "rating": 2.8,
    "user_ratings_total": 223,
    "details_fetched": true
  },
  "ChIJ03AKHKxC1moRQRdh_sKzMJk": {
    "place_id": "ChIJ03AKHKxC1moRQRdh_sKzMJk",
    "name": "Malthouse Theatre",
    "lat": -37.8269701,
    "lng": 144.9664968,
    "rating": 4.6,
    "user_ratings_total": 1175,
    "details_fetched": true
  },
  "ChIJD1n_qfhn1moRU7azPRFuoBI": {
    "place_id": "ChIJD1n_qfhn1moRU7azPRFuoBI",
    "name": "PlanetKids Playcentre - Children's Party Venue",
    "lat": -37.8286447,
    "lng": 144.9553391,
    "rating": 4.3,
    "user_ratings_total": 96,
    "details_fetched": true
  },
  "ChIJs-Q2IlNd1moR4UGlA6wroOE": {
    "place_id": "ChIJs-Q2IlNd1moR4UGlA6wroOE",
    "name": "Baci",
    "lat": -37.8226445,
    "lng": 144.9585245,
    "rating": 3.1,
    "user_ratings_total": 1382,
    "details_fetched": true
  },
  "ChIJqUSf-FNd1moRm5Yb3GmRFxQ": {
    "place_id": "ChIJqUSf-FNd1moRm5Yb3GmRFxQ",
    "name": "Shed Café",
    "lat": -37.8240233,
    "lng": 144.9555847,
    "rating": 3.6,
    "user_ratings_total": 92,
    "details_fetched": true
  },
  "ChIJyVzlwbavJwARdK2ddUlgig8": {
    "place_id": "ChIJyVzlwbavJwARdK2ddUlgig8",
    "name": "United Petroleum Kingsway (Pie Face)",
    "lat": -37.8287271,
    "lng": 144.9638473,
    "rating": 3.5,
    "user_ratings_total": 176,
    "details_fetched": true
  },
  "ChIJlxIRSalC1moR1JpDqIy6jjg": {
    "place_id": "ChIJlxIRSalC1moR1JpDqIy6jjg",
    "name": "8 Miles Cafe",
    "lat": -37.8284736,
    "lng": 144.9679377,
    "rating": 4.5,
    "user_ratings_total": 178,
    "details_fetched": true
  },
  "ChIJw8kvp1BC1moRL8TomUYZV_4": {
    "place_id": "ChIJw8kvp1BC1moRL8TomUYZV_4",
    "name": "McDonalds Burnley",
    "lat": -37.8196364,
    "lng": 145.0118602,
    "rating": 3.3,
    "user_ratings_total": 890,
    "details_fetched": true
  },
  "ChIJoxHW6TNC1moR3DQjURXy03k": {
    "place_id": "ChIJoxHW6TNC1moR3DQjURXy03k",
    "name": "Billy Lids Playland - Hawthorn",
    "lat": -37.8221111,
    "lng": 145.0341314,
    "rating": 4,
    "user_ratings_total": 316,
    "details_fetched": true
  },
  "ChIJQ0tOWDJC1moRcpGmEv86oXU": {
    "place_id": "ChIJQ0tOWDJC1moRcpGmEv86oXU",
    "name": "The Resistance Burgers, Bar & Cafe",
    "lat": -37.8231028,
    "lng": 145.0385096,
    "rating": 4.6,
    "user_ratings_total": 1096,
    "details_fetched": true
  },
  "ChIJGaJdC4RB1moRTCJgxx751Pw": {
    "place_id": "ChIJGaJdC4RB1moRTCJgxx751Pw",
    "name": "Paradiso Bar and Grill",
    "lat": -37.83052929999999,
    "lng": 145.0559925,
    "rating": 4.2,
    "user_ratings_total": 281,
    "details_fetched": true
  },
  "ChIJ-aUlYwBD1moRTyE--zhjXUA": {
    "place_id": "ChIJ-aUlYwBD1moRTyE--zhjXUA",
    "name": "Lawson's Bagel Riversdale Hawthorn",
    "lat": -37.8297244,
    "lng": 145.0434196,
    "rating": 4.6,
    "user_ratings_total": 23,
    "details_fetched": true
  },
  "ChIJdVws_YBB1moRid4xFJKYQEY": {
    "place_id": "ChIJdVws_YBB1moRid4xFJKYQEY",
    "name": "Ampol Foodary Hawthorn",
    "lat": -37.8267926,
    "lng": 145.051837,
    "rating": 3.7,
    "user_ratings_total": 121,
    "details_fetched": true
  },
  "ChIJgTbR7WxB1moR6WEXTK-vGC0": {
    "place_id": "ChIJgTbR7WxB1moR6WEXTK-vGC0",
    "name": "Extra Shot Cafe - Camberwell",
    "lat": -37.8314208,
    "lng": 145.0562973,
    "rating": 4.7,
    "user_ratings_total": 129,
    "details_fetched": true
  },
  "ChIJjamazKVB1moRy2Ya8iXnmTs": {
    "place_id": "ChIJjamazKVB1moRy2Ya8iXnmTs",
    "name": "Minori Cafe",
    "lat": -37.8321009,
    "lng": 145.0579132,
    "rating": 4.6,
    "user_ratings_total": 308,
    "details_fetched": true
  },
  "ChIJYf-evaNB1moRonJi-L4tc-I": {
    "place_id": "ChIJYf-evaNB1moRonJi-L4tc-I",
    "name": "Seymour Cafe",
    "lat": -37.835164,
    "lng": 145.061487,
    "rating": 4.3,
    "user_ratings_total": 100,
    "details_fetched": true
  },
  "ChIJsRj4WgBB1moRw8ZYCuRKRZg": {
    "place_id": "ChIJsRj4WgBB1moRw8ZYCuRKRZg",
    "name": "Coffee Brew Camberwell (Pieno Di Cambi)",
    "lat": -37.8313346,
    "lng": 145.0577853,
    "rating": 4.1,
    "user_ratings_total": 39,
    "details_fetched": true
  },
  "ChIJ8URXup9B1moRY9gh8h026a8": {
    "place_id": "ChIJ8URXup9B1moRY9gh8h026a8",
    "name": "Platform 1 Cafe",
    "lat": -37.83151280000001,
    "lng": 145.0694808,
    "rating": 4.8,
    "user_ratings_total": 36,
    "details_fetched": true
  },
  "ChIJkdM1kYNB1moRiGRpmOSq9Bs": {
    "place_id": "ChIJkdM1kYNB1moRiGRpmOSq9Bs",
    "name": "Overture Cafe & Restaurant",
    "lat": -37.8294945,
    "lng": 145.0567932,
    "rating": 4.2,
    "user_ratings_total": 599,
    "details_fetched": true
  },
  "ChIJpan11ZxB1moREkOt-V88eTU": {
    "place_id": "ChIJpan11ZxB1moREkOt-V88eTU",
    "name": "Rumour Has It",
    "lat": -37.8289715,
    "lng": 145.0550686,
    "rating": 4.4,
    "user_ratings_total": 200,
    "details_fetched": true
  },
  "ChIJZWtZhOZA1moRKG2jyhwXRqs": {
    "place_id": "ChIJZWtZhOZA1moRKG2jyhwXRqs",
    "name": "Acorn Nursery",
    "lat": -37.8261872,
    "lng": 145.1009649,
    "rating": 4.4,
    "user_ratings_total": 191,
    "details_fetched": true
  },
  "ChIJG47_cfhB1moR0cb-cpunqg0": {
    "place_id": "ChIJG47_cfhB1moR0cb-cpunqg0",
    "name": "Calla and Cups Cafe",
    "lat": -37.82387849999999,
    "lng": 145.0809078,
    "rating": 4.9,
    "user_ratings_total": 135,
    "details_fetched": true
  },
  "ChIJiWIwQKBB1moRQRQ_AyQRCPc": {
    "place_id": "ChIJiWIwQKBB1moRQRQ_AyQRCPc",
    "name": "The Healthlink Crew - Aqualink Box Hill",
    "lat": -37.8267331,
    "lng": 145.1176506,
    "rating": null,
    "user_ratings_total": null,
    "details_fetched": true
  },
  "ChIJt10B7VhB1moRLeCrX3Ws-qk": {
    "place_id": "ChIJt10B7VhB1moRLeCrX3Ws-qk",
    "name": "Eno Cafe",
    "lat": -37.828648,
    "lng": 145.122676,
    "rating": 4.6,
    "user_ratings_total": 192,
    "details_fetched": true
  },
  "ChIJ33SqXgBB1moRDwa12cSbaV8": {
    "place_id": "ChIJ33SqXgBB1moRDwa12cSbaV8",
    "name": "UrfavCafe",
    "lat": -37.8287258,
    "lng": 145.1239557,
    "rating": null,
    "user_ratings_total": null,
    "details_fetched": true
  },
  "ChIJGWc1OqBA1moRwF1zM1xlelg": {
    "place_id": "ChIJGWc1OqBA1moRwF1zM1xlelg",
    "name": "Degani",
    "lat": -37.8327822,
    "lng": 145.1355365,
    "rating": 4.2,
    "user_ratings_total": 558,
    "details_fetched": true
  },
  "ChIJC2FX1kxd1moR3NaEz1ho8VA": {
    "place_id": "ChIJC2FX1kxd1moR3NaEz1ho8VA",
    "name": "CAFE FADUCCI",
    "lat": -37.8187734,
    "lng": 145.1220408,
    "rating": 4.3,
    "user_ratings_total": 308,
    "details_fetched": true
  },
  "ChIJO2r35ZJB1moRMzVOvlZZOHk": {
    "place_id": "ChIJO2r35ZJB1moRMzVOvlZZOHk",
    "name": "Heer Tea",
    "lat": -37.8330416,
    "lng": 145.133657,
    "rating": 5,
    "user_ratings_total": 16,
    "details_fetched": true
  },
  "ChIJq4ElCC9B1moRxQY5E0zBLf4": {
    "place_id": "ChIJq4ElCC9B1moRxQY5E0zBLf4",
    "name": "Happinest Supermarket & Cafe (家好超市)",
    "lat": -37.8249269,
    "lng": 145.122737,
    "rating": 4.7,
    "user_ratings_total": 89,
    "details_fetched": true
  },
  "ChIJ1UptUgBB1moRtmqazihzIVk": {
    "place_id": "ChIJ1UptUgBB1moRtmqazihzIVk",
    "name": "Box Hill United Football Club",
    "lat": -37.8303767,
    "lng": 145.1338953,
    "rating": null,
    "user_ratings_total": null,
    "details_fetched": true
  },
  "ChIJZdbj_Kg41moRdzcUfnChUyw": {
    "place_id": "ChIJZdbj_Kg41moRdzcUfnChUyw",
    "name": "McDonald's Box Hill Central",
    "lat": -37.81944239999999,
    "lng": 145.1215114,
    "rating": 2.9,
    "user_ratings_total": 1041,
    "details_fetched": true
  },
  "ChIJ28J1epNB1moRVzjXbcwHPOE": {
    "place_id": "ChIJ28J1epNB1moRVzjXbcwHPOE",
    "name": "AlkiraBiz Cafe",
    "lat": -37.8215313,
    "lng": 145.1241011,
    "rating": 5,
    "user_ratings_total": 31,
    "details_fetched": true
  },
  "ChIJoSCswZxB1moRZV-MhAbsCX0": {
    "place_id": "ChIJoSCswZxB1moRZV-MhAbsCX0",
    "name": "Jari Study Work Cafe",
    "lat": -37.8209072,
    "lng": 145.1260997,
    "rating": 4.7,
    "user_ratings_total": 107,
    "details_fetched": true
  },
  "ChIJ7dhAET5B1moRzcBigBCEM1o": {
    "place_id": "ChIJ7dhAET5B1moRzcBigBCEM1o",
    "name": "java coffe bar",
    "lat": -37.8190429,
    "lng": 145.1247372,
    "rating": null,
    "user_ratings_total": null,
    "details_fetched": true
  },
  "ChIJ_TatmO9B1moRj37Rz7yYEU0": {
    "place_id": "ChIJ_TatmO9B1moRj37Rz7yYEU0",
    "name": "Station Cafe Deli",
    "lat": -37.8184708,
    "lng": 145.1209963,
    "rating": null,
    "user_ratings_total": null,
    "details_fetched": true
  },
  "ChIJG_5IXs9h1moRwWP41un76tA": {
    "place_id": "ChIJG_5IXs9h1moRwWP41un76tA",
    "name": "Little D's Cafe",
    "lat": -37.8187163,
    "lng": 144.8196631,
    "rating": 4.9,
    "user_ratings_total": 8,
    "details_fetched": true
  },
  "ChIJUWoUC01g1moRKPEBFu_Kx-4": {
    "place_id": "ChIJUWoUC01g1moRKPEBFu_Kx-4",
    "name": "K's Cafe",
    "lat": -37.8166668,
    "lng": 144.8163909,
    "rating": null,
    "user_ratings_total": null,
    "details_fetched": true
  },
  "ChIJ5R5XeVJg1moRD4K6EBr1Pn8": {
    "place_id": "ChIJ5R5XeVJg1moRD4K6EBr1Pn8",
    "name": "Energy Cafe",
    "lat": -37.8169958,
    "lng": 144.8180528,
    "rating": 2.8,
    "user_ratings_total": 8,
    "details_fetched": true
  },
  "ChIJZ26O0Etg1moR9EYe1NjRzBQ": {
    "place_id": "ChIJZ26O0Etg1moR9EYe1NjRzBQ",
    "name": "Schwing Cafe",
    "lat": -37.81235079999999,
    "lng": 144.810385,
    "rating": null,
    "user_ratings_total": null,
    "details_fetched": true
  },
  "ChIJQTLyrk5g1moRUD4aVkNXWh0": {
    "place_id": "ChIJQTLyrk5g1moRUD4aVkNXWh0",
    "name": "Normanbys Cafe",
    "lat": -37.8123091,
    "lng": 144.813155,
    "rating": 4.9,
    "user_ratings_total": 48,
    "details_fetched": true
  },
  "ChIJdz3cP05g1moRybcyTlSWLWk": {
    "place_id": "ChIJdz3cP05g1moRybcyTlSWLWk",
    "name": "Cafe Fresh",
    "lat": -37.8128498,
    "lng": 144.8170783,
    "rating": 4.3,
    "user_ratings_total": 91,
    "details_fetched": true
  },
  "ChIJA4gXEIth1moRwIMdgd3jEu8": {
    "place_id": "ChIJA4gXEIth1moRwIMdgd3jEu8",
    "name": "Industrial Corner Cafe",
    "lat": -37.8158804,
    "lng": 144.8243628,
    "rating": 4.2,
    "user_ratings_total": 12,
    "details_fetched": true
  },
  "ChIJv_b1lEdh1moReJ3xT3UATSA": {
    "place_id": "ChIJv_b1lEdh1moReJ3xT3UATSA",
    "name": "The Dairy",
    "lat": -37.82627749999999,
    "lng": 144.7864407,
    "rating": 3.9,
    "user_ratings_total": 11,
    "details_fetched": true
  },
  "ChIJM8elmvWL1moRxVl-YQdkPno": {
    "place_id": "ChIJM8elmvWL1moRxVl-YQdkPno",
    "name": "Jasper Jade Cafe",
    "lat": -37.80826799999999,
    "lng": 144.8044099,
    "rating": 4.6,
    "user_ratings_total": 36,
    "details_fetched": true
  },
  "ChIJHzNCwVlg1moRbgD0H4fWoWs": {
    "place_id": "ChIJHzNCwVlg1moRbgD0H4fWoWs",
    "name": "Proximity Cafe and Catering",
    "lat": -37.8115284,
    "lng": 144.825244,
    "rating": 4.7,
    "user_ratings_total": 62,
    "details_fetched": true
  },
  "ChIJ3yp4_ZJh1moRF9yVmG1nuE0": {
    "place_id": "ChIJ3yp4_ZJh1moRF9yVmG1nuE0",
    "name": "Jorge's Cafe on Somerville",
    "lat": -37.8070652,
    "lng": 144.8274722,
    "rating": 4.8,
    "user_ratings_total": 193,
    "details_fetched": true
  },
  "ChIJ9487ksFg1moRB-5hvKdiDRo": {
    "place_id": "ChIJ9487ksFg1moRB-5hvKdiDRo",
    "name": "Stima Cafe",
    "lat": -37.8161722,
    "lng": 144.8532247,
    "rating": 5,
    "user_ratings_total": 1,
    "details_fetched": true
  },
  "ChIJ04dOfYZh1moRacJ9Wjn0axA": {
    "place_id": "ChIJ04dOfYZh1moRacJ9Wjn0axA",
    "name": "RtpVictory",
    "lat": -37.81795879999999,
    "lng": 144.8628298,
    "rating": null,
    "user_ratings_total": null,
    "details_fetched": true
  },
  "ChIJ0arr9r5h1moRz1NTgSVegvo": {
    "place_id": "ChIJ0arr9r5h1moRz1NTgSVegvo",
    "name": "Cafe480",
    "lat": -37.8127614,
    "lng": 144.8620778,
    "rating": 3,
    "user_ratings_total": 2,
    "details_fetched": true
  },
  "ChIJCcmTDwBn1moRzdcbzOz1www": {
    "place_id": "ChIJCcmTDwBn1moRzdcbzOz1www",
    "name": "Mr Baxter Cafe",
    "lat": -37.8081173,
    "lng": 144.8742487,
    "rating": 4.7,
    "user_ratings_total": 46,
    "details_fetched": true
  },
  "ChIJwZ7nKENn1moRjlbUQO9T8hc": {
    "place_id": "ChIJwZ7nKENn1moRjlbUQO9T8hc",
    "name": "Willis & Anderson",
    "lat": -37.81692200000001,
    "lng": 144.89207,
    "rating": 4.5,
    "user_ratings_total": 329,
    "details_fetched": true
  },
  "ChIJg0jTQ0Nn1moR9pGa1t9scTo": {
    "place_id": "ChIJg0jTQ0Nn1moR9pGa1t9scTo",
    "name": "Heal.Thy Self Co ️",
    "lat": -37.8169976,
    "lng": 144.8906473,
    "rating": 4.4,
    "user_ratings_total": 320,
    "details_fetched": true
  },
  "ChIJ98C9JGdn1moRxYqh6vbW6y4": {
    "place_id": "ChIJ98C9JGdn1moRxYqh6vbW6y4",
    "name": "Ampol Foodary Yarraville",
    "lat": -37.814071,
    "lng": 144.896928,
    "rating": 3.8,
    "user_ratings_total": 137,
    "details_fetched": true
  },
  "ChIJOZGcCVBn1moRzcq_KtHkcd8": {
    "place_id": "ChIJOZGcCVBn1moRzcq_KtHkcd8",
    "name": "McDonald's Yarraville",
    "lat": -37.812576,
    "lng": 144.884128,
    "rating": 3.6,
    "user_ratings_total": 1526,
    "details_fetched": true
  },
  "ChIJ6TT0k1Nn1moRRwWdCW2F1S0": {
    "place_id": "ChIJ6TT0k1Nn1moRRwWdCW2F1S0",
    "name": "Kingsville Family Cafe",
    "lat": -37.807507,
    "lng": 144.8769729,
    "rating": 4.7,
    "user_ratings_total": 14,
    "details_fetched": true
  },
  "ChIJ_QGSmIld1moRU-QrkQlKWUo": {
    "place_id": "ChIJ_QGSmIld1moRU-QrkQlKWUo",
    "name": "Roadhaven Cafe",
    "lat": -37.8085404,
    "lng": 144.9019424,
    "rating": 5,
    "user_ratings_total": 1,
    "details_fetched": true
  },
  "ChIJh8kJ9Bhd1moRRpzM28RYRGY": {
    "place_id": "ChIJh8kJ9Bhd1moRRpzM28RYRGY",
    "name": "M&J LOUNGE",
    "lat": -37.80760279999999,
    "lng": 144.904358,
    "rating": 4.6,
    "user_ratings_total": 22,
    "details_fetched": true
  },
  "ChIJLfwXvkVn1moRrY4yDBd06is": {
    "place_id": "ChIJLfwXvkVn1moRrY4yDBd06is",
    "name": "Roasting Warehouse | Docklands",
    "lat": -37.8238639,
    "lng": 144.9394928,
    "rating": 3.2,
    "user_ratings_total": 13,
    "details_fetched": true
  },
  "ChIJuaTJ3P1d1moRc1eGDKwkx4s": {
    "place_id": "ChIJuaTJ3P1d1moRc1eGDKwkx4s",
    "name": "Maybe Later",
    "lat": -37.8054446,
    "lng": 144.9063492,
    "rating": 5,
    "user_ratings_total": 1,
    "details_fetched": true
  },
  "ChIJg9BhK11d1moR9bkSU6EBXbQ": {
    "place_id": "ChIJg9BhK11d1moR9bkSU6EBXbQ",
    "name": "Renzo's Bar",
    "lat": -37.8147448,
    "lng": 144.9416482,
    "rating": 4.2,
    "user_ratings_total": 1032,
    "details_fetched": true
  },
  "ChIJtQbN-mdd1moRrHR67icKE8I": {
    "place_id": "ChIJtQbN-mdd1moRrHR67icKE8I",
    "name": "The Coffee Club Café - Waterfront City Docklands",
    "lat": -37.81229,
    "lng": 144.9379319,
    "rating": 3.2,
    "user_ratings_total": 688,
    "details_fetched": true
  },
  "ChIJv3bGZWhd1moRT2hpKnnnWcw": {
    "place_id": "ChIJv3bGZWhd1moRT2hpKnnnWcw",
    "name": "San Churro Docklands",
    "lat": -37.812216,
    "lng": 144.9369331,
    "rating": 4,
    "user_ratings_total": 342,
    "details_fetched": true
  },
  "ChIJ0YNSUktd1moR-b16N_JtsLw": {
    "place_id": "ChIJ0YNSUktd1moR-b16N_JtsLw",
    "name": "iBean",
    "lat": -37.8190965,
    "lng": 144.9549893,
    "rating": 4.6,
    "user_ratings_total": 111,
    "details_fetched": true
  },
  "ChIJ3VlKn7ZC1moRnOHqo_15M_I": {
    "place_id": "ChIJ3VlKn7ZC1moRnOHqo_15M_I",
    "name": "Young and Jacksons",
    "lat": -37.8173408,
    "lng": 144.9671631,
    "rating": 4.2,
    "user_ratings_total": 4671,
    "details_fetched": true
  },
  "ChIJJcDqO-pC1moRbSwUW6f2ae0": {
    "place_id": "ChIJJcDqO-pC1moRbSwUW6f2ae0",
    "name": "Laurent Bakery East Melbourne",
    "lat": -37.816106,
    "lng": 144.984947,
    "rating": 3.6,
    "user_ratings_total": 225,
    "details_fetched": true
  },
  "ChIJfwM3SFFC1moRMLYbMnmZMTs": {
    "place_id": "ChIJfwM3SFFC1moRMLYbMnmZMTs",
    "name": "CrossFit Richmond",
    "lat": -37.81817399999999,
    "lng": 145.009583,
    "rating": 4.9,
    "user_ratings_total": 83,
    "details_fetched": true
  },
  "ChIJCa3C8eRC1moRALAhzq7ra30": {
    "place_id": "ChIJCa3C8eRC1moRALAhzq7ra30",
    "name": "ACspresSO",
    "lat": -37.8099411,
    "lng": 144.9921437,
    "rating": 4.7,
    "user_ratings_total": 39,
    "details_fetched": true
  },
  "ChIJSy1ue-NC1moRNGlk2duZxKY": {
    "place_id": "ChIJSy1ue-NC1moRNGlk2duZxKY",
    "name": "Ampol Foodary Abbotsford",
    "lat": -37.8077817,
    "lng": 144.9920294,
    "rating": 2.2,
    "user_ratings_total": 53,
    "details_fetched": true
  },
  "ChIJ9ZOkps1D1moR8aFkbIFTBk8": {
    "place_id": "ChIJ9ZOkps1D1moR8aFkbIFTBk8",
    "name": "Rococo Hawthorn",
    "lat": -37.816402,
    "lng": 145.0363151,
    "rating": 4.3,
    "user_ratings_total": 1776,
    "details_fetched": true
  },
  "ChIJbSyBRxRD1moRlQLPcnob0J0": {
    "place_id": "ChIJbSyBRxRD1moRlQLPcnob0J0",
    "name": "Brew@Botanicca",
    "lat": -37.8274412,
    "lng": 145.0177626,
    "rating": 5,
    "user_ratings_total": 4,
    "details_fetched": true
  },
  "ChIJ8-NKdENC1moRUg9KVABrHfY": {
    "place_id": "ChIJ8-NKdENC1moRUg9KVABrHfY",
    "name": "Roma Botanicca Cafe & Juice Bar",
    "lat": -37.8268916,
    "lng": 145.0198807,
    "rating": 4.2,
    "user_ratings_total": 22,
    "details_fetched": true
  },
  "ChIJX9Z1e9FD1moR-qnrSiwiM58": {
    "place_id": "ChIJX9Z1e9FD1moR-qnrSiwiM58",
    "name": "The Faculty Hawthorn",
    "lat": -37.81544820000001,
    "lng": 145.0415935,
    "rating": 4.7,
    "user_ratings_total": 147,
    "details_fetched": true
  },
  "ChIJVQz_A8VD1moRNKpzW94GBcM": {
    "place_id": "ChIJVQz_A8VD1moRNKpzW94GBcM",
    "name": "Kew RSL Sub - Branch",
    "lat": -37.8071494,
    "lng": 145.0357496,
    "rating": 4.4,
    "user_ratings_total": 77,
    "details_fetched": true
  },
  "ChIJhdPG-VdD1moR14ov2i6dYLQ": {
    "place_id": "ChIJhdPG-VdD1moR14ov2i6dYLQ",
    "name": "Timber + Greens - Hawthorn",
    "lat": -37.8245027,
    "lng": 145.0363325,
    "rating": 4.9,
    "user_ratings_total": 8,
    "details_fetched": true
  },
  "ChIJiRNXcIdD1moRIOjbEn9I_SY": {
    "place_id": "ChIJiRNXcIdD1moRIOjbEn9I_SY",
    "name": "ZAGAME BROS COFFEE CO.",
    "lat": -37.823029,
    "lng": 145.033648,
    "rating": 5,
    "user_ratings_total": 6,
    "details_fetched": true
  },
  "ChIJI09qncBD1moRLRg4HmYq3X8": {
    "place_id": "ChIJI09qncBD1moRLRg4HmYq3X8",
    "name": "Vivid Cafe & Lounge",
    "lat": -37.8234368,
    "lng": 145.0354029,
    "rating": 4.8,
    "user_ratings_total": 129,
    "details_fetched": true
  },
  "ChIJGQTXcFxD1moRzUdHLIMYy8Q": {
    "place_id": "ChIJGQTXcFxD1moRzUdHLIMYy8Q",
    "name": "C9 Chocolate & Gelato Hawthorn",
    "lat": -37.82270159999999,
    "lng": 145.0350406,
    "rating": 4.6,
    "user_ratings_total": 153,
    "details_fetched": true
  },
  "ChIJK-Yi-NBD1moRs7_b5cVDmTk": {
    "place_id": "ChIJK-Yi-NBD1moRs7_b5cVDmTk",
    "name": "Mim's Cafe",
    "lat": -37.8229563,
    "lng": 145.0367523,
    "rating": 4.8,
    "user_ratings_total": 10,
    "details_fetched": true
  },
  "ChIJqyj3LUNB1moRCvzUxkOG_po": {
    "place_id": "ChIJqyj3LUNB1moRCvzUxkOG_po",
    "name": "Minnie’s",
    "lat": -37.8204881,
    "lng": 145.0503553,
    "rating": 4.8,
    "user_ratings_total": 19,
    "details_fetched": true
  },
  "ChIJSZouDyNB1moRryOa4R29pwk": {
    "place_id": "ChIJSZouDyNB1moRryOa4R29pwk",
    "name": "McDonald's Balwyn",
    "lat": -37.8133929,
    "lng": 145.0848026,
    "rating": 3.6,
    "user_ratings_total": 2064,
    "details_fetched": true
  },
  "ChIJjW8GkmlB1moRTY3cOsKbImw": {
    "place_id": "ChIJjW8GkmlB1moRTY3cOsKbImw",
    "name": "IL Delicato Cafe",
    "lat": -37.8110011,
    "lng": 145.0652474,
    "rating": 4.6,
    "user_ratings_total": 32,
    "details_fetched": true
  },
  "ChIJcectS55B1moRyZwS1Re-y54": {
    "place_id": "ChIJcectS55B1moRyZwS1Re-y54",
    "name": "NAILOLOGY - Coffee & Nails (Kew)",
    "lat": -37.8162057,
    "lng": 145.0593873,
    "rating": 4.7,
    "user_ratings_total": 332,
    "details_fetched": true
  },
  "ChIJKzUa6DxB1moR7SleWWtHKB0": {
    "place_id": "ChIJKzUa6DxB1moR7SleWWtHKB0",
    "name": "United Petroleum Balwyn (Pie Face)",
    "lat": -37.812235,
    "lng": 145.0812007,
    "rating": 3.6,
    "user_ratings_total": 29,
    "details_fetched": true
  },
  "ChIJLfSqwGlB1moRSryk-ZHLPYA": {
    "place_id": "ChIJLfSqwGlB1moRSryk-ZHLPYA",
    "name": "Highside",
    "lat": -37.812419,
    "lng": 145.07924,
    "rating": 4.9,
    "user_ratings_total": 255,
    "details_fetched": true
  },
  "ChIJDzJy8rlB1moRWOFyegv4rQo": {
    "place_id": "ChIJDzJy8rlB1moRWOFyegv4rQo",
    "name": "Petit Peace Coffee Shokudo",
    "lat": -37.812054,
    "lng": 145.076171,
    "rating": 4.5,
    "user_ratings_total": 138,
    "details_fetched": true
  },
  "ChIJ1eQvFbRA1moRumIC3ezbxmE": {
    "place_id": "ChIJ1eQvFbRA1moRumIC3ezbxmE",
    "name": "The Daily Dose Cafe",
    "lat": -37.8129244,
    "lng": 145.1198196,
    "rating": 4.3,
    "user_ratings_total": 116,
    "details_fetched": true
  },
  "ChIJpUQ0KvtB1moRBunlRpFjrUM": {
    "place_id": "ChIJpUQ0KvtB1moRBunlRpFjrUM",
    "name": "Box Hill Institute Cafeteria",
    "lat": -37.8155103,
    "lng": 145.1149078,
    "rating": 3.4,
    "user_ratings_total": 17,
    "details_fetched": true
  },
  "ChIJH4OrgZNB1moR9wSn1CWhOrM": {
    "place_id": "ChIJH4OrgZNB1moR9wSn1CWhOrM",
    "name": "Seoul Bakery Boxhill",
    "lat": -37.8176067,
    "lng": 145.1183925,
    "rating": 4.6,
    "user_ratings_total": 98,
    "details_fetched": true
  },
  "ChIJydPWsbdA1moRmj7lBu90eY4": {
    "place_id": "ChIJydPWsbdA1moRmj7lBu90eY4",
    "name": "Second Wife",
    "lat": -37.8162368,
    "lng": 145.1175708,
    "rating": 4.2,
    "user_ratings_total": 443,
    "details_fetched": true
  },
  "ChIJGcIFPeFB1moRO6HfGVA0Pp4": {
    "place_id": "ChIJGcIFPeFB1moRO6HfGVA0Pp4",
    "name": "Hey Juice",
    "lat": -37.8185032,
    "lng": 145.1239407,
    "rating": 3.7,
    "user_ratings_total": 57,
    "details_fetched": true
  },
  "ChIJva8qkelB1moRjLyfP-alAPI": {
    "place_id": "ChIJva8qkelB1moRjLyfP-alAPI",
    "name": "Cafe bien",
    "lat": -37.8189115,
    "lng": 145.1260442,
    "rating": 4.6,
    "user_ratings_total": 41,
    "details_fetched": true
  },
  "ChIJi-FsdslB1moRUSRbQbIdvq8": {
    "place_id": "ChIJi-FsdslB1moRUSRbQbIdvq8",
    "name": "Beanoholic Cafe",
    "lat": -37.817252,
    "lng": 145.1238209,
    "rating": 4.1,
    "user_ratings_total": 51,
    "details_fetched": true
  },
  "ChIJD_E-kbZA1moRCVSzVFplqaE": {
    "place_id": "ChIJD_E-kbZA1moRCVSzVFplqaE",
    "name": "Mary’s Paddock",
    "lat": -37.8146426,
    "lng": 145.1193929,
    "rating": 4.4,
    "user_ratings_total": 33,
    "details_fetched": true
  },
  "ChIJS66haJ5B1moRPB6qm_MwWoU": {
    "place_id": "ChIJS66haJ5B1moRPB6qm_MwWoU",
    "name": "Zeal cafe",
    "lat": -37.81396779999999,
    "lng": 145.1188155,
    "rating": 2.8,
    "user_ratings_total": 91,
    "details_fetched": true
  },
  "ChIJKW2XsEdg1moR2nCQ607iERs": {
    "place_id": "ChIJKW2XsEdg1moR2nCQ607iERs",
    "name": "McDonald's Western Ring Rd West",
    "lat": -37.80363859999999,
    "lng": 144.8043134,
    "rating": 3.3,
    "user_ratings_total": 5774,
    "details_fetched": true
  },
  "ChIJOyju3dVh1moRwsmW1WaRXAA": {
    "place_id": "ChIJOyju3dVh1moRwsmW1WaRXAA",
    "name": "Early Birds Cafe",
    "lat": -37.8127856,
    "lng": 144.78657,
    "rating": 3.8,
    "user_ratings_total": 152,
    "details_fetched": true
  },
  "ChIJG3Muj3qK1moRAX5ab_4gq0s": {
    "place_id": "ChIJG3Muj3qK1moRAX5ab_4gq0s",
    "name": "Max's Diner",
    "lat": -37.813873,
    "lng": 144.7858678,
    "rating": 4.4,
    "user_ratings_total": 327,
    "details_fetched": true
  },
  "ChIJP1i6qm2L1moRd2RYvSN5cDU": {
    "place_id": "ChIJP1i6qm2L1moRd2RYvSN5cDU",
    "name": "Jimmy's Cafe",
    "lat": -37.8091965,
    "lng": 144.7821322,
    "rating": 4.6,
    "user_ratings_total": 10,
    "details_fetched": true
  },
  "ChIJM2H284uL1moRfK-ByHdJFkM": {
    "place_id": "ChIJM2H284uL1moRfK-ByHdJFkM",
    "name": "Anatolia Brew Van Coffee Caravan",
    "lat": -37.8087414,
    "lng": 144.7790179,
    "rating": null,
    "user_ratings_total": null,
    "details_fetched": true
  },
  "ChIJYbOtfRxh1moRhpuJJ22trH0": {
    "place_id": "ChIJYbOtfRxh1moRhpuJJ22trH0",
    "name": "CQ Nail Spa",
    "lat": -37.797507,
    "lng": 144.805626,
    "rating": 4.2,
    "user_ratings_total": 117,
    "details_fetched": true
  },
  "ChIJFeHrJnmL1moRwAiO0yHhXi8": {
    "place_id": "ChIJFeHrJnmL1moRwAiO0yHhXi8",
    "name": "Urban Eatery Truganina",
    "lat": -37.8127603,
    "lng": 144.7653643,
    "rating": 4.6,
    "user_ratings_total": 278,
    "details_fetched": true
  },
  "ChIJPTvf4bNh1moRqZkk0xnGakE": {
    "place_id": "ChIJPTvf4bNh1moRqZkk0xnGakE",
    "name": "KABABI",
    "lat": -37.8004042,
    "lng": 144.8387266,
    "rating": 4.6,
    "user_ratings_total": 281,
    "details_fetched": true
  },
  "ChIJ4UU6xv1h1moRPwwr-Xj7q24": {
    "place_id": "ChIJ4UU6xv1h1moRPwwr-Xj7q24",
    "name": "Redham Lounge",
    "lat": -37.7969393,
    "lng": 144.8294751,
    "rating": 4.6,
    "user_ratings_total": 19,
    "details_fetched": true
  },
  "ChIJ7ScURwBh1moRJXrlD84LAds": {
    "place_id": "ChIJ7ScURwBh1moRJXrlD84LAds",
    "name": "ALFA@DC",
    "lat": -37.8037096,
    "lng": 144.8659426,
    "rating": 4.7,
    "user_ratings_total": 10,
    "details_fetched": true
  },
  "ChIJgyyfzxxe1moR73WfA94Ipmg": {
    "place_id": "ChIJgyyfzxxe1moR73WfA94Ipmg",
    "name": "Braybrook STN",
    "lat": -37.7938046,
    "lng": 144.8608474,
    "rating": 4.1,
    "user_ratings_total": 436,
    "details_fetched": true
  },
  "ChIJG3ccWvRd1moRlsFQu1sfThw": {
    "place_id": "ChIJG3ccWvRd1moRlsFQu1sfThw",
    "name": "EDO Apartments",
    "lat": -37.8040621,
    "lng": 144.8920415,
    "rating": null,
    "user_ratings_total": null,
    "details_fetched": true
  },
  "ChIJY-fcDo1d1moRJyyWPWUSuyo": {
    "place_id": "ChIJY-fcDo1d1moRJyyWPWUSuyo",
    "name": "Mr Piccolo",
    "lat": -37.800809,
    "lng": 144.8978279,
    "rating": 4.4,
    "user_ratings_total": 34,
    "details_fetched": true
  },
  "ChIJr_FdCI5d1moRrWdOc0k9Rns": {
    "place_id": "ChIJr_FdCI5d1moRrWdOc0k9Rns",
    "name": "Café Cui",
    "lat": -37.8014107,
    "lng": 144.9007474,
    "rating": 4,
    "user_ratings_total": 142,
    "details_fetched": true
  },
  "ChIJQWAPbQBd1moRnVuhS545dt0": {
    "place_id": "ChIJQWAPbQBd1moRnVuhS545dt0",
    "name": "Alfa. Whitten Oval",
    "lat": -37.7999733,
    "lng": 144.886083,
    "rating": 5,
    "user_ratings_total": 19,
    "details_fetched": true
  },
  "ChIJpyRCdLtd1moR1GnGYviXuOg": {
    "place_id": "ChIJpyRCdLtd1moR1GnGYviXuOg",
    "name": "Elephant Cafe Footscray",
    "lat": -37.7989865,
    "lng": 144.8913397,
    "rating": null,
    "user_ratings_total": null,
    "details_fetched": true
  },
  "ChIJXbAoyI1d1moRUvJmVKXGvC0": {
    "place_id": "ChIJXbAoyI1d1moRUvJmVKXGvC0",
    "name": "Harar Mesob (Ethiopian Restaurant, Bar & Cafe)",
    "lat": -37.8020967,
    "lng": 144.8993578,
    "rating": 4.5,
    "user_ratings_total": 82,
    "details_fetched": true
  },
  "ChIJXSx-MIxd1moR2AlPr1WErx0": {
    "place_id": "ChIJXSx-MIxd1moR2AlPr1WErx0",
    "name": "The Morning Rush",
    "lat": -37.8033062,
    "lng": 144.8997732,
    "rating": 3.8,
    "user_ratings_total": 24,
    "details_fetched": true
  },
  "ChIJ5Wb19ZRd1moRFwKEpyhQlMk": {
    "place_id": "ChIJ5Wb19ZRd1moRFwKEpyhQlMk",
    "name": "Reading Room Cafe.",
    "lat": -37.7929501,
    "lng": 144.8991907,
    "rating": 3.9,
    "user_ratings_total": 78,
    "details_fetched": true
  },
  "ChIJvbajy8hd1moRVY04WsDVgkg": {
    "place_id": "ChIJvbajy8hd1moRVY04WsDVgkg",
    "name": "Agha Juice & Desserts Footscray",
    "lat": -37.8007794,
    "lng": 144.8968219,
    "rating": 5,
    "user_ratings_total": 12,
    "details_fetched": true
  },
  "ChIJIX38eW1d1moRNd6tzYN0ZxY": {
    "place_id": "ChIJIX38eW1d1moRNd6tzYN0ZxY",
    "name": "United Petroleum Kensington (Pie Face)",
    "lat": -37.80290879999999,
    "lng": 144.9298606,
    "rating": 3,
    "user_ratings_total": 74,
    "details_fetched": true
  },
  "ChIJcZupbgBd1moRtoPj-B6DJWw": {
    "place_id": "ChIJcZupbgBd1moRtoPj-B6DJWw",
    "name": "Liberty Cafe",
    "lat": -37.7993539,
    "lng": 144.9071172,
    "rating": 5,
    "user_ratings_total": 5,
    "details_fetched": true
  },
  "ChIJ1XoWYkld1moRhqnxlXbGk94": {
    "place_id": "ChIJ1XoWYkld1moRhqnxlXbGk94",
    "name": "Heirloom Seed",
    "lat": -37.8131423,
    "lng": 144.9556046,
    "rating": 4.7,
    "user_ratings_total": 128,
    "details_fetched": true
  },
  "ChIJ93lfpjVd1moRyNHBOShkQV8": {
    "place_id": "ChIJ93lfpjVd1moRyNHBOShkQV8",
    "name": "Phancy Cafe & Catering",
    "lat": -37.8090882,
    "lng": 144.9582545,
    "rating": 4.4,
    "user_ratings_total": 196,
    "details_fetched": true
  },
  "ChIJAYrRlB9D1moRlTWupi5bTjA": {
    "place_id": "ChIJAYrRlB9D1moRlTWupi5bTjA",
    "name": "Friends of the Earth Melbourne Food Coop & Cafe",
    "lat": -37.799929,
    "lng": 144.984332,
    "rating": 4.7,
    "user_ratings_total": 283,
    "details_fetched": true
  },
  "ChIJuQ7IjuJC1moRV-UGjfqXVgg": {
    "place_id": "ChIJuQ7IjuJC1moRV-UGjfqXVgg",
    "name": "Magic Hand Carwash - Collingwood",
    "lat": -37.804472,
    "lng": 144.991802,
    "rating": 4.5,
    "user_ratings_total": 900,
    "details_fetched": true
  },
  "ChIJg8-nA7ZC1moRe2AM9VBAYtw": {
    "place_id": "ChIJg8-nA7ZC1moRe2AM9VBAYtw",
    "name": "Up There",
    "lat": -37.815,
    "lng": 144.972576,
    "rating": 4.6,
    "user_ratings_total": 406,
    "details_fetched": true
  },
  "ChIJAXysH8ZC1moRueHsXK_yg-M": {
    "place_id": "ChIJAXysH8ZC1moRueHsXK_yg-M",
    "name": "Bar Carlo",
    "lat": -37.812087,
    "lng": 144.972347,
    "rating": 4.6,
    "user_ratings_total": 83,
    "details_fetched": true
  },
  "ChIJFfjEmshC1moRz4NUJVUporQ": {
    "place_id": "ChIJFfjEmshC1moRz4NUJVUporQ",
    "name": "Hamodava Cafe",
    "lat": -37.812515,
    "lng": 144.971628,
    "rating": 4.3,
    "user_ratings_total": 25,
    "details_fetched": true
  },
  "ChIJ4WYHjxxD1moRieuKEApzMl8": {
    "place_id": "ChIJ4WYHjxxD1moRieuKEApzMl8",
    "name": "Doghouse Dog Cafe",
    "lat": -37.799881,
    "lng": 144.9919433,
    "rating": 4.7,
    "user_ratings_total": 338,
    "details_fetched": true
  },
  "ChIJwRNQEh1D1moR9CGBmWaxvoc": {
    "place_id": "ChIJwRNQEh1D1moR9CGBmWaxvoc",
    "name": "Jasper Coffee - Roaster",
    "lat": -37.7986379,
    "lng": 144.9940429,
    "rating": 4.6,
    "user_ratings_total": 17,
    "details_fetched": true
  },
  "ChIJjamLOcND1moRGH3r59bV7xc": {
    "place_id": "ChIJjamLOcND1moRGH3r59bV7xc",
    "name": "Sparechair Cafe",
    "lat": -37.80373869999999,
    "lng": 145.0372255,
    "rating": 4.8,
    "user_ratings_total": 31,
    "details_fetched": true
  },
  "ChIJWYOgtW9D1moRGb-a5lfM8Uw": {
    "place_id": "ChIJWYOgtW9D1moRGb-a5lfM8Uw",
    "name": "Betterburnt",
    "lat": -37.8150014,
    "lng": 145.0365568,
    "rating": 4.9,
    "user_ratings_total": 198,
    "details_fetched": true
  },
  "ChIJy7Y9Wv9D1moR2FIOyYYrpRM": {
    "place_id": "ChIJy7Y9Wv9D1moR2FIOyYYrpRM",
    "name": "Pronto Aroma Kew",
    "lat": -37.8073006,
    "lng": 145.0306628,
    "rating": 4.6,
    "user_ratings_total": 76,
    "details_fetched": true
  },
  "ChIJZ78hJH1D1moRiMXyPcVqfsw": {
    "place_id": "ChIJZ78hJH1D1moRiMXyPcVqfsw",
    "name": "Dang Good Cafe",
    "lat": -37.8078252,
    "lng": 145.0281199,
    "rating": 4.8,
    "user_ratings_total": 36,
    "details_fetched": true
  },
  "ChIJ8-cE1XVD1moRyErg5Eoc8Pw": {
    "place_id": "ChIJ8-cE1XVD1moRyErg5Eoc8Pw",
    "name": "Grace Park Hawthorn Club Cafe",
    "lat": -37.8198181,
    "lng": 145.0283237,
    "rating": 5,
    "user_ratings_total": 1,
    "details_fetched": true
  },
  "ChIJNXNVXs5D1moRqLOWJOi5Gh4": {
    "place_id": "ChIJNXNVXs5D1moRqLOWJOi5Gh4",
    "name": "Kupid Espresso",
    "lat": -37.812946,
    "lng": 145.042774,
    "rating": 4.5,
    "user_ratings_total": 195,
    "details_fetched": true
  },
  "ChIJoQXDTExB1moR9SKYnlQBQrg": {
    "place_id": "ChIJoQXDTExB1moR9SKYnlQBQrg",
    "name": "Magic Hand Carwash - Kew East",
    "lat": -37.7936162,
    "lng": 145.063231,
    "rating": 4.4,
    "user_ratings_total": 1153,
    "details_fetched": true
  },
  "ChIJNXedLgBB1moRyjWZLRjwlFI": {
    "place_id": "ChIJNXedLgBB1moRyjWZLRjwlFI",
    "name": "Le Petit Cafe",
    "lat": -37.803849,
    "lng": 145.101284,
    "rating": 4.7,
    "user_ratings_total": 45,
    "details_fetched": true
  },
  "ChIJATlHKS1H1moR5lz25iSIQZ0": {
    "place_id": "ChIJATlHKS1H1moR5lz25iSIQZ0",
    "name": "Bin 3 Cafe And Wine Bar",
    "lat": -37.803289,
    "lng": 145.1021215,
    "rating": 4.5,
    "user_ratings_total": 173,
    "details_fetched": true
  },
  "ChIJYQRAmklH1moRE9b9ymmGWSk": {
    "place_id": "ChIJYQRAmklH1moRE9b9ymmGWSk",
    "name": "United Petroleum Box Hill (Pie Face)",
    "lat": -37.803379,
    "lng": 145.117659,
    "rating": 3.2,
    "user_ratings_total": 104,
    "details_fetched": true
  },
  "ChIJnbSAzdRH1moRPd5u_sS3RDM": {
    "place_id": "ChIJnbSAzdRH1moRPd5u_sS3RDM",
    "name": "Butterfly House on Milne",
    "lat": -37.8003788,
    "lng": 145.1113526,
    "rating": 4.9,
    "user_ratings_total": 30,
    "details_fetched": true
  },
  "ChIJbzKl7Kg41moRyt6cuvEtTWo": {
    "place_id": "ChIJbzKl7Kg41moRyt6cuvEtTWo",
    "name": "Middle Ground Café",
    "lat": -37.8090387,
    "lng": 145.1415477,
    "rating": 4.6,
    "user_ratings_total": 23,
    "details_fetched": true
  },